":"","launchName":"Skunk Lake","launchType":"Trailer Launch","rampType":"Concrete","numRamps":"1","numToilets":"0","dataUpdate":"5/13/2013","acres":"156.68","county":"Jackson","latitude":"43.52765965","longitude":"-95.26027621","id":"53fa094e794297250bb6471a","geo":{"lat":"43.52765965","long":"-95.26027621"}},{"DOWLKNUM":"17006000","lakeName":"Talcot Lake","altName":"Talcott","rivName":"","launchName":"Talcot Lake","launchType":"Trailer Launch","rampType":"Plank","numRamps":"1","numToilets":"1","dataUpdate":"5/13/2013","acres":"873.04","county":"Cottonwood","latitude":"43.86445172","longitude":"-95.45668832","id":"53fa094e794297250bb6471b","geo":{"lat":"43.86445172","long":"-95.45668832"}},{"DOWLKNUM":"17007300","lakeName":"Summit Lake","altName":"","rivName":"","launchName":"Summit Lake","launchType":"Trailer Launch","rampType":"Plank","numRamps":"1","numToilets":"0","dataUpdate":"5/13/2013","acres":"64.14","county":"Cottonwood","latitude":"43.85672568","longitude":"-95.06517326","id":"53fa094e794297250bb6471c","geo":{"lat":"43.85672568","long":"-95.06517326"}},{"DOWLKNUM":"42000200","lakeName":"School Grove Lake","altName":"","rivName":"","launchName":"School Grove Lake","launchType":"Trailer Launch","rampType":"Concrete","numRamps":"1","numToilets":"1","dataUpdate":"5/13/2013","acres":"342.4","county":"Lyon","latitude":"44.55749529","longitude":"-95.62456439","id":"53fa094e794297250bb6471d","geo":{"lat":"44.55749529","long":"-95.62456439"}},{"DOWLKNUM":"64005800","lakeName":"Redwood Lake","altName":"","rivName":"","launchName":"Redwood Lake","launchType":"Trailer Launch","rampType":"Plank","numRamps":"1","numToilets":"1","dataUpdate":"5/13/2013","acres":"87.45","county":"Redwood","latitude":"44.54031091","longitude":"-95.12362562","id":"53fa094e794297250bb6471e","geo":{"lat":"44.54031091","long":"-95.12362562"}},{"DOWLKNUM":"41008900","lakeName":"Shaokatan Lake","altName":"Shoakotan","rivName":"","launchName":"Shaokatan Lake (S)","launchType":"Trailer Launch","rampType":"Concrete","numRamps":"2","numToilets":"1","dataUpdate":"5/13/2013","acres":"995.77","county":"Lincoln","latitude":"44.40552888","longitude":"-96.34717333","id":"53fa094e794297250bb6471f","geo":{"lat":"44.40552888","long":"-96.34717333"}},{"DOWLKNUM":"51004500","lakeName":"Shetek Lake, Armstrong Bay","altName":"","rivName":"","launchName":"Shetek Lake, Armstrong Bay","launchType":"Carry-In","rampType":"Earth","numRamps":"0","numToilets":"0","dataUpdate":"5/13/2013","acres":"33.63","county":"Murray","latitude":"44.12004591","longitude":"-95.6625","id":"53fa094e794297250bb64720","geo":{"lat":"44.12004591","long":"-95.6625"}},{"DOWLKNUM":"17002300","lakeName":"Swan Lake","altName":"","rivName":"","launchName":"Swan Lake","launchType":"Carry-In","rampType":"Gravel","numRamps":"0","numToilets":"0","dataUpdate":"5/13/2013","acres":"5.83","county":"Cottonwood","latitude":"43.99211663","longitude":"-95.10297713","id":"53fa094e794297250bb64721","geo":{"lat":"43.99211663","long":"-95.10297713"}},{"DOWLKNUM":"32005800","lakeName":"Timber Lake","altName":"Minneseka","rivName":"","launchName":"Timber Lake","launchType":"Trailer Launch","rampType":"Concrete","numRamps":"1","numToilets":"0","dataUpdate":"5/13/2013","acres":"191.32","county":"Jackson","latitude":"43.8193149","longitude":"-95.20521359","id":"53fa094e794297250bb64722","geo":{"lat":"43.8193149","long":"-95.20521359"}},{"DOWLKNUM":"","lakeName":"South Heron Lake","altName":"","rivName":"","launchName":"South Heron Lake (E)","launchType":"Trailer Launch","rampType":"Concrete","numRamps":"1","numToilets":"0","dataUpdate":"5/13/2013","acres":"0","county":"Jackson","latitude":"43.70650304","longitude":"-95.21019161","id":"53fa094e794297250bb64723","geo":{"lat":"43.70650304","long":"-95.21019161"}},{"DOWLKNUM":"","lakeName":"South Heron Lake","altName":"","rivName":"","launchName":"South Heron Lake (W)","launchType":"Trailer Launch","rampType":"Concrete","numRamps":"1","numToilets":"1","dataUpdate":"5/13/2013","acres":"0","county":"Jackson","latitude":"43.71650448","longitude":"-95.23265912","id":"53fa094e794297250bb64724","geo":{"lat":"43.71650448","long":"-95.23265912"}},{"DOWLKNUM":"","lakeName":"South Heron Lake","altName":"","rivName":"","launchName":"South Heron Lake (NW)","launchType":"Carry-In","rampType":"Earth","numRamps":"0","numToilets":"0","dataUpdate":"5/13/2013","acres":"0","county":"Jackson","latitude":"43.73260283","longitude":"-95.26875879","id":"53fa094e794297250bb64725","geo":{"lat":"43.73260283","long":"-95.26875879"}},{"DOWLKNUM":"32006900","lakeName":"Round Lake","altName":"","rivName":"","launchName":"Round Lake (S)","launchType":"Trailer Launch","rampType":"Concrete","numRamps":"1","numToilets":"0","dataUpdate":"5/13/2013","acres":"929.83","county":"Jackson","latitude":"43.54968744","longitude":"-95.43454083","id":"53fa094e794297250bb64726","geo":{"lat":"43.54968744","long":"-95.43454083"}},{"DOWLKNUM":"32006900","lakeName":"Round Lake","altName":"","rivName":"","launchName":"Round Lake (E)","launchType":"Trailer Launch","rampType":"Plank","numRamps":"2","numToilets":"1","dataUpdate":"5/13/2013","acres":"929.83","county":"Jackson","latitude":"43.55841866","longitude":"-95.41892566","id":"53fa094e794297250bb64727","geo":{"lat":"43.55841866","long":"-95.41892566"}},{"DOWLKNUM":"51004600","lakeName":"Shetek Lake","altName":"","rivName":"","launchName":"Shetek Lake (E)","launchType":"Trailer Launch","rampType":"Plank","numRamps":"1","numToilets":"0","dataUpdate":"5/13/2013","acres":"3370.97","county":"Murray","latitude":"44.09769514","longitude":"-95.69305568","id":"53fa094e794297250bb64728","geo":{"lat":"44.09769514","long":"-95.69305568"}},{"DOWLKNUM":"51004600","lakeName":"Shetek Lake","altName":"","rivName":"","launchName":"Shetek Lake, Lake Shetek SPK","launchType":"Trailer Launch","rampType":"Plank","numRamps":"1","numToilets":"1","dataUpdate":"5/13/2013","acres":"3370.97","county":"Murray","latitude":"44.10886683","longitude":"-95.69771775","id":"53fa094e794297250bb64729","geo":{"lat":"44.10886683","long":"-95.69771775"}},{"DOWLKNUM":"51003800","lakeName":"Round Lake","altName":"","rivName":"","launchName":"Round Lake","launchType":"Carry-In","rampType":"Earth","numRamps":"0","numToilets":"0","dataUpdate":"5/13/2013","acres":"163.1","county":"Murray","latitude":"44.15219364","longitude":"-95.66072754","id":"53fa094e794297250bb6472a","geo":{"lat":"44.15219364","long":"-95.66072754"}},{"DOWLKNUM":"51004600","lakeName":"Shetek Lake","altName":"","rivName":"","launchName":"Shetek Lake (W)","launchType":"Trailer Launch","rampType":"Plank","numRamps":"0","numToilets":"1","dataUpdate":"5/13/2013","acres":"3370.97","county":"Murray","latitude":"44.10877437","longitude":"-95.70930852","id":"53fa094e794297250bb6472b","geo":{"lat":"44.10877437","long":"-95.70930852"}},{"DOWLKNUM":"53003100","lakeName":"Mud Lake","altName":"","rivName":"","launchName":"Sieverding Marsh Lake","launchType":"Carry-In","rampType":"Earth","numRamps":"0","numToilets":"0","dataUpdate":"5/13/2013","acres":"58.79","county":"Nobles","latitude":"43.84559065","longitude":"-95.60427938","id":"53fa094e794297250bb6472c","geo":{"lat":"43.84559065","long":"-95.60427938"}},{"DOWLKNUM":"47008800","lakeName":"Richardson Lake","altName":"","rivName":"","launchName":"Richardson Lake","launchType":"Trailer Launch","rampType":"Concrete","numRamps":"1","numToilets":"0","dataUpdate":"5/13/2013","acres":"119.37","county":"Meeker","latitude":"45.15507306","longitude":"-94.44302557","id":"53fa094e794297250bb6472d","geo":{"lat":"45.15507306","long":"-94.44302557"}},{"DOWLKNUM":"47010200","lakeName":"Round Lake","altName":"","rivName":"","launchName":"Round Lake","launchType":"Trailer Launch","rampType":"Concrete","numRamps":"1","numToilets":"0","dataUpdate":"5/13/2013","acres":"266.33","county":"Meeker","latitude":"45.07926394","longitude":"-94.51107924","id":"53fa094e794297250bb6472e","geo":{"lat":"45.07926394","long":"-94.51107924"}},{"DOWLKNUM":"47004600","lakeName":"Washington Lake","altName":"","rivName":"","launchName":"Washington Lake (E)","launchType":"Trailer Launch","rampType":"Gravel","numRamps":"1","numToilets":"1","dataUpdate":"5/13/2013","acres":"2433.85","county":"Meeker","latitude":"45.07357412","longitude":"-94.34095448","id":"53fa094e794297250bb6472f","geo":{"lat":"45.07357412","long":"-94.34095448"}},{"DOWLKNUM":"47012900","lakeName":"Star Lake","altName":"","rivName":"","launchName":"Star Lake","launchType":"Trailer Launch","rampType":"Concrete","numRamps":"1","numToilets":"0","dataUpdate":"5/13/2013","acres":"556.68","county":"Meeker","latitude":"45.05623893","longitude":"-94.5938112","id":"53fa094e794297250bb64730","geo":{"lat":"45.05623893","long":"-94.5938112"}},{"DOWLKNUM":"47001400","lakeName":"Spencer Lake","altName":"","rivName":"","launchName":"Spencer Lake","launchType":"Carry-In","rampType":"Gravel","numRamps":"1","numToilets":"0","dataUpdate":"5/13/2013","acres":"147.59","county":"Meeker","latitude":"45.01232576","longitude":"-94.3362991","id":"53fa094e794297250bb64731","geo":{"lat":"45.01232576","long":"-94.3362991"}},{"DOWLKNUM":"47006100","lakeName":"Willie Lake","altName":"","rivName":"","launchName":"Willie Lake","launchType":"Trailer Launch","rampType":"Concrete","numRamps":"2","numToilets":"0","dataUpdate":"5/13/2013","acres":"191.7","county":"Meeker","latitude":"45.00853951","longitude":"-94.50014296","id":"53fa094e794297250bb64732","geo":{"lat":"45.00853951","long":"-94.50014296"}},{"DOWLKNUM":"47001600","lakeName":"Wolf Lake","altName":"","rivName":"","launchName":"Wolf Lake","launchType":"Trailer Launch","rampType":"Concrete","numRamps":"1","numToilets":"0","dataUpdate":"5/13/2013","acres":"262.36","county":"Meeker","latitude":"45.00328617","longitude":"-94.29869161","id":"53fa094e794297250bb64733","geo":{"lat":"45.00328617","long":"-94.29869161"}},{"DOWLKNUM":"47015900","lakeName":"Thompson Lake","altName":"","rivName":"","launchName":"Thompson Lake","launchType":"Trailer Launch","rampType":"Concrete","numRamps":"1","numToilets":"0","dataUpdate":"5/13/2013","acres":"225.75","county":"Meeker","latitude":"44.93734215","longitude":"-94.72355835","id":"53fa094e794297250bb64734","geo":{"lat":"44.93734215","long":"-94.72355835"}},{"DOWLKNUM":"65000200","lakeName":"Preston Lake","altName":"","rivName":"","launchName":"Preston Lake","launchType":"Trailer Launch","rampType":"Concrete","numRamps":"1","numToilets":"1","dataUpdate":"5/13/2013","acres":"654.95","county":"Renville","latitude":"44.77798299","longitude":"-94.54477839","id":"53fa094e794297250bb64735","geo":{"lat":"44.77798299","long":"-94.54477839"}},{"DOWLKNUM":"","lakeName":"Ripley Lake","altName":"","rivName":"","launchName":"Ripley Lake (E)","launchType":"Trailer Launch","rampType":"Concrete","numRamps":"1","numToilets":"1","dataUpdate":"5/13/2013","acres":"0","county":"Meeker","latitude":"45.1025185","longitude":"-94.53033334","id":"53fa094e794297250bb64736","geo":{"lat":"45.1025185","long":"-94.53033334"}},{"DOWLKNUM":"","lakeName":"Ripley Lake","altName":"","rivName":"","launchName":"Ripley Lake (W)","launchType":"Trailer Launch","rampType":"Concrete","numRamps":"1","numToilets":"0","dataUpdate":"5/13/2013","acres":"0","county":"Meeker","latitude":"45.11175758","longitude":"-94.54996072","id":"53fa094e794297250bb64737","geo":{"lat":"45.11175758","long":"-94.54996072"}},{"DOWLKNUM":"47013800","lakeName":"Youngstrom Lake","altName":"","rivName":"","launchName":"Youngstrom Lake","launchType":"Trailer Launch","rampType":"Gravel","numRamps":"1","numToilets":"0","dataUpdate":"5/13/2013","acres":"153.23","county":"Meeker","latitude":"45.08084662","longitude":"-94.56900667","id":"53fa094e794297250bb64738","geo":{"lat":"45.08084662","long":"-94.56900667"}},{"DOWLKNUM":"47003200","lakeName":"Spring Lake","altName":"","rivName":"","launchName":"Spring Lake","launchType":"Trailer Launch","rampType":"Concrete","numRamps":"0","numToilets":"0","dataUpdate":"5/13/2013","acres":"201.2","county":"Meeker","latitude":"45.09408987","longitude":"-94.30098046","id":"53fa094e794297250bb64739","geo":{"lat":"45.09408987","long":"-94.30098046"}},{"DOWLKNUM":"47004600","lakeName":"Washington Lake","altName":"","rivName":"","launchName":"Washington Lake (S)","launchType":"Trailer Launch","rampType":"Concrete","numRamps":"2","numToilets":"2","dataUpdate":"5/13/2013","acres":"2433.85","county":"Meeker","latitude":"45.05739182","longitude":"-94.37874083","id":"53fa094e794297250bb6473a","geo":{"lat":"45.05739182","long":"-94.37874083"}},{"DOWLKNUM":"47006800","lakeName":"Stella Lake","altName":"","rivName":"","launchName":"Stella Lake","launchType":"Trailer Launch","rampType":"Concrete","numRamps":"2","numToilets":"1","dataUpdate":"5/13/2013","acres":"596.37","county":"Meeker","latitude":"45.0608249","longitude":"-94.42495039","id":"53fa094e794297250bb6473b","geo":{"lat":"45.0608249","long":"-94.42495039"}},{"DOWLKNUM":"87003000","lakeName":"Wood Lake","altName":"","rivName":"","launchName":"Wood Lake","launchType":"Trailer Launch","rampType":"Concrete","numRamps":"1","numToilets":"0","dataUpdate":"5/13/2013","acres":"475.32","county":"Yellow Medicine","latitude":"44.69508764","longitude":"-95.52464791","id":"53fa094e794297250bb6473c","geo":{"lat":"44.69508764","long":"-95.52464791"}},{"DOWLKNUM":"87001900","lakeName":"Tyson Lake","altName":"","rivName":"","launchName":"Tyson Lake","launchType":"Trailer Launch","rampType":"Concrete","numRamps":"1","numToilets":"0","dataUpdate":"5/13/2013","acres":"166.07","county":"Yellow Medicine","latitude":"44.61479735","longitude":"-95.52501329","id":"53fa094e794297250bb6473d","geo":{"lat":"44.61479735","long":"-95.52501329"}},{"DOWLKNUM":"87001700","lakeName":"Timm Lake","altName":"","rivName":"","launchName":"Timm Lake WMA","launchType":"Carry-In","rampType":"Earth","numRamps":"1","numToilets":"0","dataUpdate":"5/13/2013","acres":"12.51","county":"Yellow Medicine","latitude":"44.54226295","longitude":"-95.54086289","id":"53fa094e794297250bb6473e","geo":{"lat":"44.54226295","long":"-95.54086289"}},{"DOWLKNUM":"00000000","lakeName":"Pomme De Terre  River","altName":"","rivName":"Pomme de Terre","launchName":"Pomme De Terre River, #1, Hwy 12","launchType":"Carry-In","rampType":"Gravel","numRamps":"1","numToilets":"1","dataUpdate":"5/13/2013","acres":"36.93","county":"Swift","latitude":"45.28360839","longitude":"-95.97935832","id":"53fa094e794297250bb6473f","geo":{"lat":"45.28360839","long":"-95.97935832"}},{"DOWLKNUM":"00000000","lakeName":"Pomme De Terre  River","altName":"","rivName":"Pomme de Terre","launchName":"Pomme De Terre River, #2","launchType":"Carry-In","rampType":"Gravel","numRamps":"1","numToilets":"0","dataUpdate":"5/13/2013","acres":"36.93","county":"Swift","latitude":"45.17594684","longitude":"-96.08651642","id":"53fa094e794297250bb64740","geo":{"lat":"45.17594684","long":"-96.08651642"}},{"DOWLKNUM":"","lakeName":"Unnamed Lake","altName":"","rivName":"","launchName":"Pomme de Terre River, Appleton","launchType":"Carry-In","rampType":"Earth","numRamps":"1","numToilets":"1","dataUpdate":"5/13/2013","acres":"0","county":"Swift","latitude":"45.20306337","longitude":"-96.02089801","id":"53fa094e794297250bb64741","geo":{"lat":"45.20306337","long":"-96.02089801"}},{"DOWLKNUM":"76014100","lakeName":"Shible Lake","altName":"","rivName":"","launchName":"Shible Lake","launchType":"Carry-In","rampType":"Earth","numRamps":"1","numToilets":"0","dataUpdate":"5/13/2013","acres":"340.25","county":"Swift","latitude":"45.24903634","longitude":"-96.04370878","id":"53fa094e794297250bb64742","geo":{"lat":"45.24903634","long":"-96.04370878"}},{"DOWLKNUM":"76014600","lakeName":"Oliver Lake","altName":"","rivName":"","launchName":"West Oliver Lake","launchType":"Trailer Launch","rampType":"Concrete","numRamps":"1","numToilets":"1","dataUpdate":"5/13/2013","acres":"671.35","county":"Swift","latitude":"45.34661961","longitude":"-96.03177612","id":"53fa094e794297250bb64743","geo":{"lat":"45.34661961","long":"-96.03177612"}},{"DOWLKNUM":"34018000","lakeName":"Willmar Lake","altName":"","rivName":"","launchName":"Willmar Lake","launchType":"Trailer Launch","rampType":"Concrete","numRamps":"1","numToilets":"0","dataUpdate":"5/13/2013","acres":"632.24","county":"Kandiyohi","latitude":"45.13061228","longitude":"-95.03101408","id":"53fa094e794297250bb64744","geo":{"lat":"45.13061228","long":"-95.03101408"}},{"DOWLKNUM":"34032100","lakeName":"Swenson Lake","altName":"","rivName":"","launchName":"Swenson Lake","launchType":"Trailer Launch","rampType":"Concrete","numRamps":"1","numToilets":"0","dataUpdate":"5/13/2013","acres":"108.26","county":"Kandiyohi","latitude":"45.27191699","longitude":"-95.13607967","id":"53fa094e794297250bb64745","geo":{"lat":"45.27191699","long":"-95.13607967"}},{"DOWLKNUM":"34016900","lakeName":"Wagonga Lake","altName":"Waconda","rivName":"","launchName":"Wakanda (S)","launchType":"Trailer Launch","rampType":"Concrete","numRamps":"1","numToilets":"0","dataUpdate":"5/13/2013","acres":"1754.15","county":"Kandiyohi","latitude":"45.05567233","longitude":"-94.97030833","id":"53fa094e794297250bb64746","geo":{"lat":"45.05567233","long":"-94.97030833"}},{"DOWLKNUM":"34017200","lakeName":"Ringo Lake","altName":"","rivName":"","launchName":"Ringo Lake","launchType":"Trailer Launch","rampType":"Concrete","numRamps":"1","numToilets":"0","dataUpdate":"5/13/2013","acres":"734.64","county":"Kandiyohi","latitude":"45.24067419","longitude":"-95.00857202","id":"53fa094e794297250bb64747","geo":{"lat":"45.24067419","long":"-95.00857202"}},{"DOWLKNUM":"34016900","lakeName":"Wagonga Lake","altName":"Waconda","rivName":"","launchName":"Wakanda Lake (N)","launchType":"Trailer Launch","rampType":"Concrete","numRamps":"1","numToilets":"0","dataUpdate":"5/13/2013","acres":"1754.15","county":"Kandiyohi","latitude":"45.0622937","longitude":"-95.00043414","id":"53fa094e794297250bb64748","geo":{"lat":"45.0622937","long":"-95.00043414"}},{"DOWLKNUM":"87006000","lakeName":"Spellman Lake","altName":"","rivName":"","launchName":"Spellman Lake","launchType":"Trailer Launch","rampType":"Concrete","numRamps":"1","numToilets":"0","dataUpdate":"5/13/2013","acres":"166.01","county":"Yellow Medicine","latitude":"44.67091737","longitude":"-95.78075129","id":"53fa094e794297250bb64749","geo":{"lat":"44.67091737","long":"-95.78075129"}},{"DOWLKNUM":"34019300","lakeName":"Point Lake","altName":"","rivName":"","launchName":"Point Lake","launchType":"Trailer Launch","rampType":"Concrete","numRamps":"1","numToilets":"0","dataUpdate":"5/13/2013","acres":"173.52","county":"Kandiyohi","latitude":"45.19488036","longitude":"-95.0079474","id":"53fa094e794297250bb6474a","geo":{"lat":"45.19488036","long":"-95.0079474"}},{"DOWLKNUM":"","lakeName":"Zumbro River","altName":"","rivName":"","launchName":"Zumbro River, Elton Hills Drive   Steps down to the water's  edge.","launchType":"Carry-In","rampType":"Other","numRamps":"1","numToilets":"0","dataUpdate":"5/13/2013","acres":"0","county":"Olmsted","latitude":"44.043597","longitude":"-92.4644264","id":"53fa094e794297250bb6474b","geo":{"lat":"44.043597","long":"-92.4644264"}},{"DOWLKNUM":"","lakeName":"Sunrise Pool, #1","altName":"","rivName":"","launchName":"Sunrise Pool, #1 (N)","launchType":"Carry-In","rampType":"Earth","numRamps":"1","numToilets":"1","dataUpdate":"5/13/2013","acres":"0","county":"Chisago","latitude":"45.39258996","longitude":"-92.9562197","id":"53fa094e794297250bb6474c","geo":{"lat":"45.39258996","long":"-92.9562197"}},{"DOWLKNUM":"71004000","lakeName":"Sandy Lake","altName":"Sand","rivName":"","launchName":"Sandy Lake (N)","launchType":"Carry-In","rampType":"Earth","numRamps":"0","numToilets":"0","dataUpdate":"5/13/2013","acres":"64.14","county":"Sherburne","latitude":"45.48806429","longitude":"-93.52014534","id":"53fa094e794297250bb6474d","geo":{"lat":"45.48806429","long":"-93.52014534"}},{"DOWLKNUM":"","lakeName":"Zumbro River","altName":"","rivName":"","launchName":"Zumbro River, Green Bridge","launchType":"Carry-In","rampType":"Earth","numRamps":"1","numToilets":"0","dataUpdate":"5/13/2013","acres":"0","county":"Wabasha","latitude":"44.233401","longitude":"-92.48248389","id":"53fa094e794297250bb6474e","geo":{"lat":"44.233401","long":"-92.48248389"}},{"DOWLKNUM":"","lakeName":"Zumbro River","altName":"","rivName":"","launchName":"Zumbro River, Covered Bridge Park","launchType":"Carry-In","rampType":"Earth","numRamps":"1","numToilets":"0","dataUpdate":"5/13/2013","acres":"0","county":"Goodhue","latitude":"44.29642768","longitude":"-92.67020593","id":"53fa094e794297250bb6474f","geo":{"lat":"44.29642768","long":"-92.67020593"}},{"DOWLKNUM":"","lakeName":"Root River, Whalan","altName":"","rivName":"","launchName":"Root River, Whalan","launchType":"Carry-In","rampType":"Earth","numRamps":"1","numToilets":"1","dataUpdate":"5/13/2013","acres":"0","county":"Fillmore","latitude":"43.73453048","longitude":"-91.91970248","id":"53fa094e794297250bb64750","geo":{"lat":"43.73453048","long":"-91.91970248"}},{"DOWLKNUM":"","lakeName":"Zumbro River, Oronoco","altName":"","rivName":"","launchName":"Zumbro River, Oronoco Landing","launchType":"Carry-In","rampType":"Gravel","numRamps":"1","numToilets":"0","dataUpdate":"5/13/2013","acres":"0","county":"Olmsted","latitude":"44.16309557","longitude":"-92.53315681","id":"53fa094e794297250bb64751","geo":{"lat":"44.16309557","long":"-92.53315681"}},{"DOWLKNUM":"","lakeName":"Root River, Mound Prairie","altName":"","rivName":"","launchName":"Root River, Mound Prairie","launchType":"Carry-In","rampType":"Gravel","numRamps":"1","numToilets":"0","dataUpdate":"5/13/2013","acres":"0","county":"Houston","latitude":"43.78152805","longitude":"-91.44657787","id":"53fa094e794297250bb64752","geo":{"lat":"43.78152805","long":"-91.44657787"}},{"DOWLKNUM":"","lakeName":"Root River, Hokah","altName":"","rivName":"","launchName":"Root River, Hokah","launchType":"Carry-In","rampType":"Earth","numRamps":"1","numToilets":"0","dataUpdate":"5/13/2013","acres":"0","county":"Houston","latitude":"43.76596099","longitude":"-91.34377042","id":"53fa094e794297250bb64753","geo":{"lat":"43.76596099","long":"-91.34377042"}},{"DOWLKNUM":"","lakeName":"Whitewater River, Beaver","altName":"","rivName":"","launchName":"Whitewater River, Beaver","launchType":"Carry-In","rampType":"Earth","numRamps":"1","numToilets":"0","dataUpdate":"5/13/2013","acres":"0","county":"Winona","latitude":"44.1496674","longitude":"-92.00561372","id":"53fa094e794297250bb64754","geo":{"lat":"44.1496674","long":"-92.00561372"}},{"DOWLKNUM":"00000000","lakeName":"Whitewater River","altName":"","rivName":"","launchName":"Whitewater River, Elba","launchType":"Carry-In","rampType":"Earth","numRamps":"1","numToilets":"0","dataUpdate":"5/13/2013","acres":"36.93","county":"Winona","latitude":"44.09223028","longitude":"-92.01339138","id":"53fa094e794297250bb64755","geo":{"lat":"44.09223028","long":"-92.01339138"}},{"DOWLKNUM":"00000000","lakeName":"Zumbro River","altName":"","rivName":"Zumbro","launchName":"Zumbro River, Hammond Village Park","launchType":"Carry-In","rampType":"Earth","numRamps":"1","numToilets":"0","dataUpdate":"5/13/2013","acres":"36.93","county":"Wabasha","latitude":"44.22122848","longitude":"-92.36905352","id":"53fa094e794297250bb64756","geo":{"lat":"44.22122848","long":"-92.36905352"}},{"DOWLKNUM":"00000000","lakeName":"Zumbro River","altName":"","rivName":"Zumbro","launchName":"Zumbro River, Walking Bridge Park","launchType":"Carry-In","rampType":"Earth","numRamps":"1","numToilets":"0","dataUpdate":"5/13/2013","acres":"36.93","county":"Wabasha","latitude":"44.27176333","longitude":"-92.54884184","id":"53fa094e794297250bb64757","geo":{"lat":"44.27176333","long":"-92.54884184"}},{"DOWLKNUM":"00000000","lakeName":"Zumbro River","altName":"","rivName":"Zumbro","launchName":"Zumbro River, Zumbro Falls Sportsmans Park","launchType":"Carry-In","rampType":"Earth","numRamps":"1","numToilets":"0","dataUpdate":"5/13/2013","acres":"36.93","county":"Wabasha","latitude":"44.27644296","longitude":"-92.42388186","id":"53fa094e794297250bb64758","geo":{"lat":"44.27644296","long":"-92.42388186"}},{"DOWLKNUM":"00000000","lakeName":"Zumbro River","altName":"","rivName":"Zumbro","launchName":"Zumbro River, Hammond","launchType":"Carry-In","rampType":"Earth","numRamps":"1","numToilets":"1","dataUpdate":"5/13/2013","acres":"36.93","county":"Wabasha","latitude":"44.22282498","longitude":"-92.37215893","id":"53fa094e794297250bb64759","geo":{"lat":"44.22282498","long":"-92.37215893"}},{"DOWLKNUM":"00000000","lakeName":"Zumbro River","altName":"","rivName":"Zumbro","launchName":"Zumbro River, Theilman","launchType":"Carry-In","rampType":"Earth","numRamps":"1","numToilets":"0","dataUpdate":"5/13/2013","acres":"36.93","county":"Wabasha","latitude":"44.28669489","longitude":"-92.18684524","id":"53fa094e794297250bb6475a","geo":{"lat":"44.28669489","long":"-92.18684524"}},{"DOWLKNUM":"00000000","lakeName":"Zumbro River","altName":"","rivName":"Zumbro","launchName":"Zumbro River, Kruger","launchType":"Carry-In","rampType":"Earth","numRamps":"1","numToilets":"0","dataUpdate":"5/13/2013","acres":"36.93","county":"Wabasha","latitude":"44.33715938","longitude":"-92.07726336","id":"53fa094e794297250bb6475b","geo":{"lat":"44.33715938","long":"-92.07726336"}},{"DOWLKNUM":"00000000","lakeName":"Zumbro River","altName":"","rivName":"Zumbro","launchName":"Zumbro River, Kellogg","launchType":"Carry-In","rampType":"Earth","numRamps":"1","numToilets":"0","dataUpdate":"5/13/2013","acres":"36.93","county":"Wabasha","latitude":"44.31436302","longitude":"-91.99604014","id":"53fa094e794297250bb6475c","geo":{"lat":"44.31436302","long":"-91.99604014"}},{"DOWLKNUM":"00000000","lakeName":"Zumbro River","altName":"","rivName":"Zumbro","launchName":"Zumbro River, Zumbro Bottoms - Funk Ford Trail Bridge","launchType":"Carry-In","rampType":"Gravel","numRamps":"1","numToilets":"0","dataUpdate":"5/13/2013","acres":"36.93","county":"Wabasha","latitude":"44.3197301","longitude":"-92.12653194","id":"53fa094e794297250bb6475d","geo":{"lat":"44.3197301","long":"-92.12653194"}},{"DOWLKNUM":"00000000","lakeName":"Zumbro River","altName":"","rivName":"Zumbro","launchName":"Zumbro River, Reads Park","launchType":"Carry-In","rampType":"Plank","numRamps":"1","numToilets":"1","dataUpdate":"5/13/2013","acres":"36.93","county":"Wabasha","latitude":"44.23833268","longitude":"-92.29984792","id":"53fa094e794297250bb6475e","geo":{"lat":"44.23833268","long":"-92.29984792"}},{"DOWLKNUM":"55000400","lakeName":"Lake Zumbro","altName":"","rivName":"","launchName":"Zumbro River, Lake Zumbro/Ponderosa","launchType":"Trailer Launch","rampType":"Concrete","numRamps":"1","numToilets":"2","dataUpdate":"5/13/2013","acres":"714.53","county":"Wabasha","latitude":"44.20991031","longitude":"-92.47905566","id":"53fa094e794297250bb6475f","geo":{"lat":"44.20991031","long":"-92.47905566"}},{"DOWLKNUM":"00000000","lakeName":"Whitewater River","altName":"","rivName":"","launchName":"Whitewater River,  Highway 61","launchType":"Carry-In","rampType":"Earth","numRamps":"0","numToilets":"0","dataUpdate":"5/13/2013","acres":"36.93","county":"Wabasha","latitude":"44.20837936","longitude":"-91.92306867","id":"53fa094e794297250bb64760","geo":{"lat":"44.20837936","long":"-91.92306867"}},{"DOWLKNUM":"20001300","lakeName":"Oxbow Park","altName":"","rivName":"","launchName":"Zumbro River, Oxbow Park","launchType":"Carry-In","rampType":"Earth","numRamps":"1","numToilets":"0","dataUpdate":"5/13/2013","acres":"0.36","county":"Olmsted","latitude":"44.08389125","longitude":"-92.65582736","id":"53fa094e794297250bb64761","geo":{"lat":"44.08389125","long":"-92.65582736"}},{"DOWLKNUM":"55000400","lakeName":"Lake Zumbro","altName":"","rivName":"","launchName":"Zumbro River, Lake Zumbro/Sandy Point","launchType":"Carry-In","rampType":"Concrete","numRamps":"1","numToilets":"0","dataUpdate":"5/13/2013","acres":"714.53","county":"Olmsted","latitude":"44.16943116","longitude":"-92.4681394","id":"53fa094e794297250bb64762","geo":{"lat":"44.16943116","long":"-92.4681394"}},{"DOWLKNUM":"55000500","lakeName":"Shady Lake","altName":"","rivName":"","launchName":"Zumbro River, Allis Co Park","launchType":"Trailer Launch","rampType":"Concrete","numRamps":"1","numToilets":"0","dataUpdate":"5/13/2013","acres":"146.73","county":"Olmsted","latitude":"44.16245989","longitude":"-92.53573332","id":"53fa094e794297250bb64763","geo":{"lat":"44.16245989","long":"-92.53573332"}},{"DOWLKNUM":"00000000","lakeName":"Root  River","altName":"","rivName":"Root","launchName":"Root River, Hwy 26","launchType":"Carry-In","rampType":"Earth","numRamps":"1","numToilets":"0","dataUpdate":"5/13/2013","acres":"36.93","county":"Houston","latitude":"43.77702634","longitude":"-91.29834588","id":"53fa094e794297250bb64764","geo":{"lat":"43.77702634","long":"-91.29834588"}},{"DOWLKNUM":"00000000","lakeName":"Root River","altName":"","rivName":"Root","launchName":"Root River, Houston","launchType":"Carry-In","rampType":"Earth","numRamps":"1","numToilets":"0","dataUpdate":"5/13/2013","acres":"36.93","county":"Houston","latitude":"43.76899617","longitude":"-91.57121522","id":"53fa094e794297250bb64765","geo":{"lat":"43.76899617","long":"-91.57121522"}},{"DOWLKNUM":"00000000","lakeName":"Root River","altName":"","rivName":"Root","launchName":"Root River, Rushford","launchType":"Carry-In","rampType":"Earth","numRamps":"1","numToilets":"0","dataUpdate":"5/13/2013","acres":"36.93","county":"Fillmore","latitude":"43.80299613","longitude":"-91.76034811","id":"53fa094e794297250bb64766","geo":{"lat":"43.80299613","long":"-91.76034811"}},{"DOWLKNUM":"00000000","lakeName":"Root River","altName":"","rivName":"Root","launchName":"Root River, Peterson","launchType":"Carry-In","rampType":"Earth","numRamps":"1","numToilets":"0","dataUpdate":"5/13/2013","acres":"36.93","county":"Fillmore","latitude":"43.78643501","longitude":"-91.82746502","id":"53fa094e794297250bb64767","geo":{"lat":"43.78643501","long":"-91.82746502"}},{"DOWLKNUM":"00000000","lakeName":"Root River","altName":"","rivName":"Root","launchName":"Root River, Hwy 16","launchType":"Carry-In","rampType":"Gravel","numRamps":"1","numToilets":"1","dataUpdate":"5/13/2013","acres":"36.93","county":"Fillmore","latitude":"43.73682656","longitude":"-91.94680895","id":"53fa094e794297250bb64768","geo":{"lat":"43.73682656","long":"-91.94680895"}},{"DOWLKNUM":"00000000","lakeName":"South Branch Root River","altName":"","rivName":"","launchName":"Root River, Lanesboro Shorefishing","launchType":"Carry-In","rampType":"Earth","numRamps":"1","numToilets":"0","dataUpdate":"5/13/2013","acres":"36.93","county":"Fillmore","latitude":"43.71749878","longitude":"-91.97810035","id":"53fa094e794297250bb64769","geo":{"lat":"43.71749878","long":"-91.97810035"}},{"DOWLKNUM":"00000000","lakeName":"South Branch Root River","altName":"","rivName":"","launchName":"Root River, Preston","launchType":"Carry-In","rampType":"Gravel","numRamps":"1","numToilets":"0","dataUpdate":"5/13/2013","acres":"36.93","county":"Fillmore","latitude":"43.67005001","longitude":"-92.08888424","id":"53fa094e794297250bb6476a","geo":{"lat":"43.67005001","long":"-92.08888424"}},{"DOWLKNUM":"00000000","lakeName":"Root River","altName":"","rivName":"Root","launchName":"Root River, Moen's Bridge","launchType":"Carry-In","rampType":"Earth","numRamps":"1","numToilets":"0","dataUpdate":"5/13/2013","acres":"36.93","county":"Fillmore","latitude":"43.78258377","longitude":"-92.03202312","id":"53fa094e794297250bb6476b","geo":{"lat":"43.78258377","long":"-92.03202312"}},{"DOWLKNUM":"00000000","lakeName":"Root River","altName":"","rivName":"Root","launchName":"Root River, Parsley Bridge","launchType":"Carry-In","rampType":"Gravel","numRamps":"1","numToilets":"2","dataUpdate":"5/13/2013","acres":"36.93","county":"Fillmore","latitude":"43.81533099","longitude":"-92.1388496","id":"53fa094e794297250bb6476c","geo":{"lat":"43.81533099","long":"-92.1388496"}},{"DOWLKNUM":"00000000","lakeName":"North Branch Root River","altName":"","rivName":"Root","launchName":"Root River, Chatfield","launchType":"Carry-In","rampType":"Earth","numRamps":"1","numToilets":"0","dataUpdate":"5/13/2013","acres":"36.93","county":"Fillmore","latitude":"43.83975061","longitude":"-92.19711445","id":"53fa094e794297250bb6476d","geo":{"lat":"43.83975061","long":"-92.19711445"}},{"DOWLKNUM":"85001900","lakeName":"Appleby Pool","altName":"Whitewater WMA","rivName":"","launchName":"Whitewater River, Appleby Pools","launchType":"Carry-In","rampType":"Earth","numRamps":"1","numToilets":"0","dataUpdate":"5/13/2013","acres":"21","county":"Winona","latitude":"44.18384533","longitude":"-91.99643837","id":"53fa094e794297250bb6476e","geo":{"lat":"44.18384533","long":"-91.99643837"}},{"DOWLKNUM":"55000300","lakeName":"Mayo Memorial Park","altName":"","rivName":"","launchName":"Zumbro River, Mayo Memorial Park","launchType":"Carry-In","rampType":"Earth","numRamps":"0","numToilets":"1","dataUpdate":"5/13/2013","acres":"50.41","county":"Olmsted","latitude":"44.02911852","longitude":"-92.45122723","id":"53fa094e794297250bb6476f","geo":{"lat":"44.02911852","long":"-92.45122723"}},{"DOWLKNUM":"00000000","lakeName":"St, Croix  River","altName":"","rivName":"St. Croix","launchName":"St. Croix River, Osceola","launchType":"Trailer Launch","rampType":"Concrete","numRamps":"2","numToilets":"1","dataUpdate":"5/13/2013","acres":"36.93","county":"Chisago","latitude":"45.32183009","longitude":"-92.7114727","id":"53fa094e794297250bb64770","geo":{"lat":"45.32183009","long":"-92.7114727"}},{"DOWLKNUM":"","lakeName":"Rush Lake","altName":"","rivName":"","launchName":"Rush Lake (W)","launchType":"Trailer Launch","rampType":"Concrete","numRamps":"2","numToilets":"1","dataUpdate":"5/13/2013","acres":"0","county":"Chisago","latitude":"45.69477194","longitude":"-93.08893127","id":"53fa094e794297250bb64771","geo":{"lat":"45.69477194","long":"-93.08893127"}},{"DOWLKNUM":"","lakeName":"Rush Lake","altName":"","rivName":"","launchName":"Rush Lake (E)","launchType":"Trailer Launch","rampType":"Concrete","numRamps":"2","numToilets":"2","dataUpdate":"5/13/2013","acres":"0","county":"Chisago","latitude":"45.70537021","longitude":"-93.0494953","id":"53fa094e794297250bb64772","geo":{"lat":"45.70537021","long":"-93.0494953"}},{"DOWLKNUM":"00000000","lakeName":"Sunrise  River","altName":"","rivName":"","launchName":"Sunrise River, #1","launchType":"Carry-In","rampType":"Earth","numRamps":"1","numToilets":"0","dataUpdate":"5/13/2013","acres":"36.93","county":"Chisago","latitude":"45.35365787","longitude":"-92.96884771","id":"53fa094e794297250bb64773","geo":{"lat":"45.35365787","long":"-92.96884771"}},{"DOWLKNUM":"00000000","lakeName":"Rum  River","altName":"","rivName":"Rum","launchName":"Rum River, Walbo","launchType":"Trailer Launch","rampType":"Concrete","numRamps":"1","numToilets":"0","dataUpdate":"5/13/2013","acres":"36.93","county":"Isanti","latitude":"45.57912222","longitude":"-93.32285351","id":"53fa094e794297250bb64774","geo":{"lat":"45.57912222","long":"-93.32285351"}},{"DOWLKNUM":"00000000","lakeName":"Rum  River","altName":"","rivName":"Rum","launchName":"Rum River, Hwy 14","launchType":"Trailer Launch","rampType":"Earth","numRamps":"1","numToilets":"0","dataUpdate":"5/13/2013","acres":"36.93","county":"Isanti","latitude":"45.60899262","longitude":"-93.25699642","id":"53fa094e794297250bb64775","geo":{"lat":"45.60899262","long":"-93.25699642"}},{"DOWLKNUM":"30002200","lakeName":"Skogman Lake","altName":"","rivName":"","launchName":"Skogman Lake","launchType":"Trailer Launch","rampType":"Concrete","numRamps":"1","numToilets":"0","dataUpdate":"5/13/2013","acres":"222.8","county":"Isanti","latitude":"45.57342438","longitude":"-93.15181716","id":"53fa094e794297250bb64776","geo":{"lat":"45.57342438","long":"-93.15181716"}},{"DOWLKNUM":"30013500","lakeName":"Spectacle Lake","altName":"","rivName":"","launchName":"Spectacle Lake","launchType":"Trailer Launch","rampType":"Concrete","numRamps":"1","numToilets":"1","dataUpdate":"5/13/2013","acres":"242.66","county":"Isanti","latitude":"45.57479926","longitude":"-93.40423435","id":"53fa094e794297250bb64777","geo":{"lat":"45.57479926","long":"-93.40423435"}},{"DOWLKNUM":"00000000","lakeName":"St. Croix River","altName":"","rivName":"St. Croix","launchName":"St. Croix River, Boomsite","launchType":"Trailer Launch","rampType":"Concrete","numRamps":"1","numToilets":"2","dataUpdate":"5/13/2013","acres":"36.93","county":"Washington","latitude":"45.08104461","longitude":"-92.79995302","id":"53fa094e794297250bb64778","geo":{"lat":"45.08104461","long":"-92.79995302"}},{"DOWLKNUM":"30000900","lakeName":"Typo Lake","altName":"","rivName":"","launchName":"Typo Lake","launchType":"Trailer Launch","rampType":"Concrete","numRamps":"1","numToilets":"0","dataUpdate":"5/13/2013","acres":"298.15","county":"Anoka","latitude":"45.40589193","longitude":"-93.09004348","id":"53fa094e794297250bb64779","geo":{"lat":"45.40589193","long":"-93.09004348"}},{"DOWLKNUM":"00000000","lakeName":"St Croix River","altName":"","rivName":"","launchName":"St. Croix River, William O'Brien SPK","launchType":"Trailer Launch","rampType":"Concrete","numRamps":"1","numToilets":"0","dataUpdate":"5/13/2013","acres":"36.93","county":"Washington","latitude":"45.2173302","longitude":"-92.7589185","id":"53fa094e794297250bb6477a","geo":{"lat":"45.2173302","long":"-92.7589185"}},{"DOWLKNUM":"00000000","lakeName":"St Croix River","altName":"","rivName":"St. Croix","launchName":"St. Croix River, Orisville #1","launchType":"Carry-In","rampType":"Earth","numRamps":"1","numToilets":"0","dataUpdate":"5/13/2013","acres":"36.93","county":"Washington","latitude":"45.24631722","longitude":"-92.76049292","id":"53fa094e794297250bb6477b","geo":{"lat":"45.24631722","long":"-92.76049292"}},{"DOWLKNUM":"82004600","lakeName":"Square Lake","altName":"","rivName":"","launchName":"Square Lake","launchType":"Trailer Launch","rampType":"Concrete","numRamps":"2","numToilets":"1","dataUpdate":"5/13/2013","acres":"203.04","county":"Washington","latitude":"45.15265501","longitude":"-92.79636202","id":"53fa094e794297250bb6477c","geo":{"lat":"45.15265501","long":"-92.79636202"}},{"DOWLKNUM":"00000000","lakeName":"St Croix River","altName":"","rivName":"","launchName":"St. Croix River, St Croix Bluffs Regional Park","launchType":"Trailer Launch","rampType":"Concrete","numRamps":"2","numToilets":"2","dataUpdate":"5/13/2013","acres":"36.93","county":"Washington","latitude":"44.79892684","longitude":"-92.78725153","id":"53fa094e794297250bb6477d","geo":{"lat":"44.79892684","long":"-92.78725153"}},{"DOWLKNUM":"62008200","lakeName":"Wabasso Lake","altName":"","rivName":"","launchName":"Wabasso Lake","launchType":"Trailer Launch","rampType":"Concrete","numRamps":"1","numToilets":"0","dataUpdate":"5/13/2013","acres":"42.82","county":"Ramsey","latitude":"45.04357354","longitude":"-93.11511884","id":"53fa094e794297250bb6477e","geo":{"lat":"45.04357354","long":"-93.11511884"}},{"DOWLKNUM":"62007300","lakeName":"Snail Lake","altName":"","rivName":"","launchName":"Snail Lake","launchType":"Trailer Launch","rampType":"Concrete","numRamps":"2","numToilets":"1","dataUpdate":"5/13/2013","acres":"147.78","county":"Ramsey","latitude":"45.06854951","longitude":"-93.12209887","id":"53fa094e794297250bb6477f","geo":{"lat":"45.06854951","long":"-93.12209887"}},{"DOWLKNUM":"62006100","lakeName":"Turtle Lake","altName":"","rivName":"","launchName":"Turtle Lake","launchType":"Trailer Launch","rampType":"Concrete","numRamps":"2","numToilets":"0","dataUpdate":"5/13/2013","acres":"450.01","county":"Ramsey","latitude":"45.09285913","longitude":"-93.13079735","id":"53fa094e794297250bb64780","geo":{"lat":"45.09285913","long":"-93.13079735"}},{"DOWLKNUM":"82016700","lakeName":"White Bear Lake","altName":"","rivName":"","launchName":"White Bear Lake, Matoska","launchType":"Trailer Launch","rampType":"Concrete","numRamps":"2","numToilets":"0","dataUpdate":"5/13/2013","acres":"2427.66","county":"Ramsey","latitude":"45.08705909","longitude":"-92.99891301","id":"53fa094e794297250bb64781","geo":{"lat":"45.08705909","long":"-92.99891301"}},{"DOWLKNUM":"30013800","lakeName":"S Stanchfield Lake","altName":"","rivName":"","launchName":"South Stanchfield Lake","launchType":"Trailer Launch","rampType":"Gravel","numRamps":"1","numToilets":"0","dataUpdate":"5/13/2013","acres":"410.83","county":"Isanti","latitude":"45.6489258","longitude":"-93.46459742","id":"53fa094e794297250bb64782","geo":{"lat":"45.6489258","long":"-93.46459742"}},{"DOWLKNUM":"00000000","lakeName":"Rum  River","altName":"","rivName":"Rum","launchName":"Rum River, Cambridge","launchType":"Carry-In","rampType":"Earth","numRamps":"1","numToilets":"1","dataUpdate":"5/13/2013","acres":"36.93","county":"Isanti","latitude":"45.57234231","longitude":"-93.23570835","id":"53fa094e794297250bb64783","geo":{"lat":"45.57234231","long":"-93.23570835"}},{"DOWLKNUM":"00000000","lakeName":"Rum  River","altName":"","rivName":"Rum","launchName":"Rum River, Martins","launchType":"Trailer Launch","rampType":"Concrete","numRamps":"1","numToilets":"0","dataUpdate":"5/13/2013","acres":"36.93","county":"Isanti","latitude":"45.48832414","longitude":"-93.26674327","id":"53fa094e794297250bb64784","geo":{"lat":"45.48832414","long":"-93.26674327"}},{"DOWLKNUM":"00000000","lakeName":"Rum River","altName":"","rivName":"Rum","launchName":"Rum River, Rum River Drive","launchType":"Carry-In","rampType":"Earth","numRamps":"1","numToilets":"0","dataUpdate":"5/13/2013","acres":"36.93","county":"Anoka","latitude":"45.22338068","longitude":"-93.39028229","id":"53fa094e794297250bb64785","geo":{"lat":"45.22338068","long":"-93.39028229"}},{"DOWLKNUM":"62008300","lakeName":"Silver Lake","altName":"","rivName":"","launchName":"Silver Lake","launchType":"Trailer Launch","rampType":"Earth","numRamps":"1","numToilets":"0","dataUpdate":"5/13/2013","acres":"70.84","county":"Anoka","latitude":"45.04307717","longitude":"-93.22833016","id":"53fa094e794297250bb64786","geo":{"lat":"45.04307717","long":"-93.22833016"}},{"DOWLKNUM":"00000000","lakeName":"Rum River","altName":"","rivName":"Rum","launchName":"Rum/Mississippi River","launchType":"Trailer Launch","rampType":"Concrete","numRamps":"1","numToilets":"1","dataUpdate":"5/13/2013","acres":"36.93","county":"Anoka","latitude":"45.19240955","longitude":"-93.39030794","id":"53fa094e794297250bb64787","geo":{"lat":"45.19240955","long":"-93.39030794"}},{"DOWLKNUM":"02008900","lakeName":"Round Lake","altName":"","rivName":"","launchName":"Round Lake","launchType":"Trailer Launch","rampType":"Earth","numRamps":"1","numToilets":"1","dataUpdate":"5/13/2013","acres":"256.16","county":"Anoka","latitude":"45.2373513","longitude":"-93.35064101","id":"53fa094e794297250bb64788","geo":{"lat":"45.2373513","long":"-93.35064101"}},{"DOWLKNUM":"00000000","lakeName":"Rum River","altName":"","rivName":"Rum","launchName":"Rum River, Co Rd 288","launchType":"Trailer Launch","rampType":"Concrete","numRamps":"2","numToilets":"1","dataUpdate":"5/13/2013","acres":"36.93","county":"Anoka","latitude":"45.21382464","longitude":"-93.38928853","id":"53fa094e794297250bb64789","geo":{"lat":"45.21382464","long":"-93.38928853"}},{"DOWLKNUM":"00000000","lakeName":"Rum River","altName":"","rivName":"Rum","launchName":"Rum River, Andover","launchType":"Carry-In","rampType":"Earth","numRamps":"1","numToilets":"0","dataUpdate":"5/13/2013","acres":"36.93","county":"Anoka","latitude":"45.24990596","longitude":"-93.38254244","id":"53fa094e794297250bb6478a","geo":{"lat":"45.24990596","long":"-93.38254244"}},{"DOWLKNUM":"00000000","lakeName":"Rum River","altName":"","rivName":"Rum","launchName":"Rum River, Central Park N","launchType":"Trailer Launch","rampType":"Concrete","numRamps":"1","numToilets":"1","dataUpdate":"5/13/2013","acres":"36.93","county":"Anoka","latitude":"45.2964992","longitude":"-93.37702119","id":"53fa094e794297250bb6478b","geo":{"lat":"45.2964992","long":"-93.37702119"}},{"DOWLKNUM":"00000000","lakeName":"Rum River","altName":"","rivName":"Rum","launchName":"Rum River, North","launchType":"Carry-In","rampType":"Earth","numRamps":"1","numToilets":"1","dataUpdate":"5/13/2013","acres":"36.93","county":"Anoka","latitude":"45.38898301","longitude":"-93.3583013","id":"53fa094e794297250bb6478c","geo":{"lat":"45.38898301","long":"-93.3583013"}},{"DOWLKNUM":"00000000","lakeName":"Vermillion  River","altName":"","rivName":"","launchName":"Upper Vermillion","launchType":"Trailer Launch","rampType":"Concrete","numRamps":"1","numToilets":"0","dataUpdate":"5/13/2013","acres":"36.93","county":"Dakota","latitude":"44.70276698","longitude":"-92.75821672","id":"53fa094e794297250bb6478d","geo":{"lat":"44.70276698","long":"-92.75821672"}},{"DOWLKNUM":"00000000","lakeName":"Mississippi River","altName":"","rivName":"","launchName":"Spring Lake, Park","launchType":"Trailer Launch","rampType":"Concrete","numRamps":"1","numToilets":"0","dataUpdate":"5/13/2013","acres":"36.93","county":"Dakota","latitude":"44.75902993","longitude":"-92.93801091","id":"53fa094e794297250bb6478e","geo":{"lat":"44.75902993","long":"-92.93801091"}},{"DOWLKNUM":"00000000","lakeName":"St Croix  River","altName":"","rivName":"St. Croix","launchName":"St. Croix River, Ferry","launchType":"Carry-In","rampType":"Earth","numRamps":"1","numToilets":"0","dataUpdate":"5/13/2013","acres":"36.93","county":"Chisago","latitude":"45.67878968","longitude":"-92.87771634","id":"53fa094e794297250bb6478f","geo":{"lat":"45.67878968","long":"-92.87771634"}},{"DOWLKNUM":"13002800","lakeName":"S Lindstrom Lake","altName":"","rivName":"","launchName":"South Lindstrom Lake","launchType":"Trailer Launch","rampType":"Concrete","numRamps":"2","numToilets":"2","dataUpdate":"5/13/2013","acres":"500.29","county":"Chisago","latitude":"45.37795115","longitude":"-92.86942182","id":"53fa094e794297250bb64790","geo":{"lat":"45.37795115","long":"-92.86942182"}},{"DOWLKNUM":"13002700","lakeName":"South Center Lake","altName":"","rivName":"","launchName":"South Center Lake","launchType":"Trailer Launch","rampType":"Concrete","numRamps":"2","numToilets":"2","dataUpdate":"5/13/2013","acres":"831.07","county":"Chisago","latitude":"45.37472495","longitude":"-92.83648615","id":"53fa094e794297250bb64791","geo":{"lat":"45.37472495","long":"-92.83648615"}},{"DOWLKNUM":"13001900","lakeName":"Spider Lake","altName":"","rivName":"","launchName":"Spider Lake","launchType":"Trailer Launch","rampType":"Concrete","numRamps":"1","numToilets":"0","dataUpdate":"5/13/2013","acres":"122.49","county":"Chisago","latitude":"45.32858383","longitude":"-92.81946553","id":"53fa094e794297250bb64792","geo":{"lat":"45.32858383","long":"-92.81946553"}},{"DOWLKNUM":"00000000","lakeName":"Sunrise  River","altName":"","rivName":"","launchName":"Sunrise River, #2","launchType":"Carry-In","rampType":"Earth","numRamps":"1","numToilets":"2","dataUpdate":"5/13/2013","acres":"36.93","county":"Chisago","latitude":"45.48022342","longitude":"-92.87541662","id":"53fa094e794297250bb64793","geo":{"lat":"45.48022342","long":"-92.87541662"}},{"DOWLKNUM":"00000000","lakeName":"St. Croix River","altName":"","rivName":"St. Croix","launchName":"St. Croix River, Taylors Falls","launchType":"Trailer Launch","rampType":"Concrete","numRamps":"1","numToilets":"1","dataUpdate":"5/13/2013","acres":"36.93","county":"Chisago","latitude":"45.4268834","longitude":"-92.65002314","id":"53fa094e794297250bb64794","geo":{"lat":"45.4268834","long":"-92.65002314"}},{"DOWLKNUM":"00000000","lakeName":"St Croix  River","altName":"","rivName":"St. Croix","launchName":"St. Croix River, Interstate SPK","launchType":"Trailer Launch","rampType":"Concrete","numRamps":"1","numToilets":"1","dataUpdate":"5/13/2013","acres":"36.93","county":"Chisago","latitude":"45.39200539","longitude":"-92.66698727","id":"53fa094e794297250bb64795","geo":{"lat":"45.39200539","long":"-92.66698727"}},{"DOWLKNUM":"00000000","lakeName":"St Croix  River","altName":"","rivName":"St. Croix","launchName":"St. Croix River, Wild River SPK","launchType":"Trailer Launch","rampType":"Concrete","numRamps":"2","numToilets":"1","dataUpdate":"5/13/2013","acres":"36.93","county":"Chisago","latitude":"45.52275041","longitude":"-92.72901256","id":"53fa094e794297250bb64796","geo":{"lat":"45.52275041","long":"-92.72901256"}},{"DOWLKNUM":"00000000","lakeName":"St Croix  River","altName":"","rivName":"St. Croix","launchName":"St. Croix River, Sunrise","launchType":"Trailer Launch","rampType":"Concrete","numRamps":"1","numToilets":"0","dataUpdate":"5/13/2013","acres":"36.93","county":"Chisago","latitude":"45.56673345","longitude":"-92.86486029","id":"53fa094e794297250bb64797","geo":{"lat":"45.56673345","long":"-92.86486029"}},{"DOWLKNUM":"","lakeName":"Sunrise Pools #1","altName":"","rivName":"","launchName":"Sunrise Pool, #1 (S)","launchType":"Carry-In","rampType":"Earth","numRamps":"1","numToilets":"0","dataUpdate":"5/13/2013","acres":"0","county":"Chisago","latitude":"45.37557833","longitude":"-92.96867602","id":"53fa094e794297250bb64798","geo":{"lat":"45.37557833","long":"-92.96867602"}},{"DOWLKNUM":"","lakeName":"Sunrise Pool #1 (n)","altName":"","rivName":"","launchName":"Sunrise Pool, #3","launchType":"Carry-In","rampType":"Earth","numRamps":"1","numToilets":"0","dataUpdate":"5/13/2013","acres":"0","county":"Chisago","latitude":"45.44039238","longitude":"-92.9098147","id":"53fa094e794297250bb64799","geo":{"lat":"45.44039238","long":"-92.9098147"}},{"DOWLKNUM":"00000000","lakeName":"St Croix  River","altName":"","rivName":"St. Croix","launchName":"St. Croix River, Old Railroad Bridge","launchType":"Carry-In","rampType":"Earth","numRamps":"1","numToilets":"0","dataUpdate":"5/13/2013","acres":"36.93","county":"Chisago","latitude":"45.70250577","longitude":"-92.87235083","id":"53fa094e794297250bb6479a","geo":{"lat":"45.70250577","long":"-92.87235083"}},{"DOWLKNUM":"00000000","lakeName":"St Croix  River","altName":"","rivName":"St. Croix","launchName":"St. Croix River, Stevens Creek","launchType":"Carry-In","rampType":"Concrete","numRamps":"1","numToilets":"2","dataUpdate":"5/13/2013","acres":"36.93","county":"Chisago","latitude":"45.72940958","longitude":"-92.84881907","id":"53fa094e794297250bb6479b","geo":{"lat":"45.72940958","long":"-92.84881907"}},{"DOWLKNUM":"70009800","lakeName":"Pleasant Lake","altName":"","rivName":"","launchName":"Pleasant Lake/Hunting access","launchType":"Carry-In","rampType":"Earth","numRamps":"1","numToilets":"0","dataUpdate":"5/13/2013","acres":"288.94","county":"Scott","latitude":"44.61087456","longitude":"-93.55832456","id":"53fa094e794297250bb6479c","geo":{"lat":"44.61087456","long":"-93.55832456"}},{"DOWLKNUM":"70007200","lakeName":"Upper Prior Lake","altName":"","rivName":"","launchName":"Upper Prior Lake, Dewitt","launchType":"Trailer Launch","rampType":"Concrete","numRamps":"1","numToilets":"1","dataUpdate":"5/13/2013","acres":"386.25","county":"Scott","latitude":"44.70619259","longitude":"-93.45521301","id":"53fa094e794297250bb6479d","geo":{"lat":"44.70619259","long":"-93.45521301"}},{"DOWLKNUM":"","lakeName":"Thole Lake","altName":"","rivName":"","launchName":"Thole Lake","launchType":"Trailer Launch","rampType":"Concrete","numRamps":"1","numToilets":"1","dataUpdate":"5/13/2013","acres":"0","county":"Scott","latitude":"44.73945337","longitude":"-93.52733407","id":"53fa094e794297250bb6479e","geo":{"lat":"44.73945337","long":"-93.52733407"}},{"DOWLKNUM":"27011700","lakeName":"Weaver Lake","altName":"","rivName":"","launchName":"Weaver Lake","launchType":"Trailer Launch","rampType":"Concrete","numRamps":"1","numToilets":"1","dataUpdate":"5/13/2013","acres":"152.09","county":"Hennepin","latitude":"45.11072989","longitude":"-93.5096337","id":"53fa094e794297250bb6479f","geo":{"lat":"45.11072989","long":"-93.5096337"}},{"DOWLKNUM":"27004200","lakeName":"Twin Lake","altName":"Two","rivName":"","launchName":"Twin Lake","launchType":"Trailer Launch","rampType":"Concrete","numRamps":"1","numToilets":"0","dataUpdate":"5/13/2013","acres":"214.72","county":"Hennepin","latitude":"45.03594778","longitude":"-93.33993476","id":"53fa094e794297250bb647a0","geo":{"lat":"45.03594778","long":"-93.33993476"}},{"DOWLKNUM":"27014900","lakeName":"Spurzem Lake","altName":"Spurzen","rivName":"","launchName":"Spurzem Lake, Baker Park Reserve","launchType":"Trailer Launch","rampType":"Concrete","numRamps":"1","numToilets":"1","dataUpdate":"5/13/2013","acres":"79.91","county":"Hennepin","latitude":"45.0384064","longitude":"-93.6211958","id":"53fa094e794297250bb647a1","geo":{"lat":"45.0384064","long":"-93.6211958"}},{"DOWLKNUM":"27004700","lakeName":"Bush Lake","altName":"","rivName":"","launchName":"West Bush Lake Park","launchType":"Trailer Launch","rampType":"Concrete","numRamps":"1","numToilets":"1","dataUpdate":"5/13/2013","acres":"185.93","county":"Hennepin","latitude":"44.83128738","longitude":"-93.38156123","id":"53fa094e794297250bb647a2","geo":{"lat":"44.83128738","long":"-93.38156123"}},{"DOWLKNUM":"27003700","lakeName":"Wirth Lake","altName":"Glenwood","rivName":"","launchName":"Theo Wirth Lake","launchType":"Trailer Launch","rampType":"Concrete","numRamps":"1","numToilets":"0","dataUpdate":"5/13/2013","acres":"39.88","county":"Hennepin","latitude":"44.98222063","longitude":"-93.32135494","id":"53fa094e794297250bb647a3","geo":{"lat":"44.98222063","long":"-93.32135494"}},{"DOWLKNUM":"27000100","lakeName":"Snelling Lake","altName":"Gun Club","rivName":"","launchName":"Snelling Lake, Snelling SPK","launchType":"Carry-In","rampType":"Earth","numRamps":"1","numToilets":"0","dataUpdate":"5/13/2013","acres":"101.43","county":"Hennepin","latitude":"44.87572638","longitude":"-93.19052865","id":"53fa094e794297250bb647a4","geo":{"lat":"44.87572638","long":"-93.19052865"}},{"DOWLKNUM":"10000200","lakeName":"Riley Lake","altName":"Reilly","rivName":"","launchName":"Riley Lake","launchType":"Trailer Launch","rampType":"Concrete","numRamps":"2","numToilets":"1","dataUpdate":"5/13/2013","acres":"296.2","county":"Hennepin","latitude":"44.83435838","longitude":"-93.51233816","id":"53fa094e794297250bb647a5","geo":{"lat":"44.83435838","long":"-93.51233816"}},{"DOWLKNUM":"27007100","lakeName":"Round Lake","altName":"","rivName":"","launchName":"Round Lake","launchType":"Trailer Launch","rampType":"Gravel","numRamps":"1","numToilets":"1","dataUpdate":"5/13/2013","acres":"30.73","county":"Hennepin","latitude":"44.86920187","longitude":"-93.49024984","id":"53fa094e794297250bb647a6","geo":{"lat":"44.86920187","long":"-93.49024984"}},{"DOWLKNUM":"27007600","lakeName":"Red Rock Lake","altName":"","rivName":"","launchName":"Red Rock Lake","launchType":"Trailer Launch","rampType":"Concrete","numRamps":"1","numToilets":"1","dataUpdate":"5/13/2013","acres":"100.26","county":"Hennepin","latitude":"44.84380941","longitude":"-93.47064617","id":"53fa094e794297250bb647a7","geo":{"lat":"44.84380941","long":"-93.47064617"}},{"DOWLKNUM":"27007800","lakeName":"Staring Lake","altName":"Starring","rivName":"","launchName":"Staring Lake","launchType":"Trailer Launch","rampType":"Concrete","numRamps":"1","numToilets":"1","dataUpdate":"5/13/2013","acres":"164.2","county":"Hennepin","latitude":"44.84107482","longitude":"-93.45746118","id":"53fa094e794297250bb647a8","geo":{"lat":"44.84107482","long":"-93.45746118"}},{"DOWLKNUM":"27018400","lakeName":"Whaletail Lake","altName":"","rivName":"","launchName":"Whaletail Lake","launchType":"Trailer Launch","rampType":"Concrete","numRamps":"1","numToilets":"1","dataUpdate":"5/13/2013","acres":"510.03","county":"Hennepin","latitude":"44.9341269","longitude":"-93.73166106","id":"53fa094e794297250bb647a9","geo":{"lat":"44.9341269","long":"-93.73166106"}},{"DOWLKNUM":"10000600","lakeName":"Lotus Lake","altName":"Long","rivName":"","launchName":"South Lotus Lake, Park","launchType":"Trailer Launch","rampType":"Concrete","numRamps":"1","numToilets":"0","dataUpdate":"5/13/2013","acres":"245.14","county":"Carver","latitude":"44.86696767","longitude":"-93.52346395","id":"53fa094e794297250bb647aa","geo":{"lat":"44.86696767","long":"-93.52346395"}},{"DOWLKNUM":"10004100","lakeName":"Zumbra Lake","altName":"","rivName":"","launchName":"Zumbra Lake, Carver Co Park Reserve","launchType":"Trailer Launch","rampType":"Gravel","numRamps":"1","numToilets":"1","dataUpdate":"5/13/2013","acres":"271.13","county":"Carver","latitude":"44.87999883","longitude":"-93.66292009","id":"53fa094e794297250bb647ab","geo":{"lat":"44.87999883","long":"-93.66292009"}},{"DOWLKNUM":"10004500","lakeName":"Steiger Lake","altName":"Victoria","rivName":"","launchName":"Steiger Lake, Carver Co Park Reserve","launchType":"Trailer Launch","rampType":"Gravel","numRamps":"1","numToilets":"1","dataUpdate":"5/13/2013","acres":"165.88","county":"Carver","latitude":"44.86529229","longitude":"-93.65650551","id":"53fa094e794297250bb647ac","geo":{"lat":"44.86529229","long":"-93.65650551"}},{"DOWLKNUM":"10010800","lakeName":"Tiger Lake","altName":"","rivName":"","launchName":"Tiger Lake/Hunting access","launchType":"Trailer Launch","rampType":"Earth","numRamps":"1","numToilets":"0","dataUpdate":"5/13/2013","acres":"406.04","county":"Carver","latitude":"44.78792282","longitude":"-93.96201265","id":"53fa094e794297250bb647ad","geo":{"lat":"44.78792282","long":"-93.96201265"}},{"DOWLKNUM":"10009500","lakeName":"Swede Lake","altName":"","rivName":"","launchName":"Swede Lake/ Hunting access","launchType":"Trailer Launch","rampType":"Earth","numRamps":"1","numToilets":"0","dataUpdate":"5/13/2013","acres":"434.06","county":"Carver","latitude":"44.93377213","longitude":"-93.81257247","id":"53fa094e794297250bb647ae","geo":{"lat":"44.93377213","long":"-93.81257247"}},{"DOWLKNUM":"","lakeName":"St. Croix River","altName":"St. Croix River","rivName":"","launchName":"St. Croix River, Bayport","launchType":"Trailer Launch","rampType":"Concrete","numRamps":"1","numToilets":"0","dataUpdate":"5/13/2013","acres":"0","county":"Washington","latitude":"45.01680125","longitude":"-92.77326401","id":"53fa094e794297250bb647af","geo":{"lat":"45.01680125","long":"-92.77326401"}},{"DOWLKNUM":"70005400","lakeName":"Spring Lake","altName":"","rivName":"","launchName":"Spring Lake","launchType":"Trailer Launch","rampType":"Plank","numRamps":"1","numToilets":"1","dataUpdate":"5/13/2013","acres":"591.84","county":"Scott","latitude":"44.69347321","longitude":"-93.4822827","id":"53fa094e794297250bb647b0","geo":{"lat":"44.69347321","long":"-93.4822827"}},{"DOWLKNUM":"82016700","lakeName":"White Bear Lake","altName":"","rivName":"","launchName":"White Bear Lake, WBL Park (N)","launchType":"Trailer Launch","rampType":"Concrete","numRamps":"2","numToilets":"1","dataUpdate":"5/13/2013","acres":"2427.66","county":"Ramsey","latitude":"45.09511167","longitude":"-92.99622015","id":"53fa094e794297250bb647b1","geo":{"lat":"45.09511167","long":"-92.99622015"}},{"DOWLKNUM":"62000100","lakeName":"Silver Lake","altName":"","rivName":"","launchName":"Silver Lake","launchType":"Trailer Launch","rampType":"Concrete","numRamps":"1","numToilets":"1","dataUpdate":"5/13/2013","acres":"74.83","county":"Ramsey","latitude":"45.03014464","longitude":"-92.9875024","id":"53fa094e794297250bb647b2","geo":{"lat":"45.03014464","long":"-92.9875024"}},{"DOWLKNUM":"00000000","lakeName":"Rum  River","altName":"","rivName":"Rum","launchName":"Rum River, Hwy 7","launchType":"Trailer Launch","rampType":"Earth","numRamps":"1","numToilets":"0","dataUpdate":"5/13/2013","acres":"36.93","county":"Isanti","latitude":"45.52976148","longitude":"-93.43922869","id":"53fa094e794297250bb647b3","geo":{"lat":"45.52976148","long":"-93.43922869"}},{"DOWLKNUM":"10004800","lakeName":"Wasserman Lake","altName":"Wasserman","rivName":"","launchName":"Wasserman Lake","launchType":"Trailer Launch","rampType":"Concrete","numRamps":"1","numToilets":"0","dataUpdate":"5/13/2013","acres":"164.56","county":"Carver","latitude":"44.84631255","longitude":"-93.67711317","id":"53fa094e794297250bb647b4","geo":{"lat":"44.84631255","long":"-93.67711317"}},{"DOWLKNUM":"10001500","lakeName":"Virginia Lake","altName":"","rivName":"","launchName":"Virginia Lake","launchType":"Trailer Launch","rampType":"Concrete","numRamps":"1","numToilets":"1","dataUpdate":"5/13/2013","acres":"104.9","county":"Carver","latitude":"44.88349445","longitude":"-93.63843915","id":"53fa094e794297250bb647b5","geo":{"lat":"44.88349445","long":"-93.63843915"}},{"DOWLKNUM":"10005200","lakeName":"Reitz Lake","altName":"Kleins","rivName":"","launchName":"Reitz Lake","launchType":"Trailer Launch","rampType":"Concrete","numRamps":"1","numToilets":"0","dataUpdate":"5/13/2013","acres":"92.42","county":"Carver","latitude":"44.84066909","longitude":"-93.74825397","id":"53fa094e794297250bb647b6","geo":{"lat":"44.84066909","long":"-93.74825397"}},{"DOWLKNUM":"10007800","lakeName":"Rice Lake","altName":"","rivName":"","launchName":"Rice Lake/Hunting access","launchType":"Trailer Launch","rampType":"Earth","numRamps":"1","numToilets":"0","dataUpdate":"5/13/2013","acres":"244.52","county":"Carver","latitude":"44.79834084","longitude":"-93.86941963","id":"53fa094e794297250bb647b7","geo":{"lat":"44.79834084","long":"-93.86941963"}},{"DOWLKNUM":"82011500","lakeName":"Tanners Lake","altName":"Tanner's","rivName":"","launchName":"Tanners Lake","launchType":"Trailer Launch","rampType":"Concrete","numRamps":"1","numToilets":"1","dataUpdate":"5/13/2013","acres":"74.39","county":"Washington","latitude":"44.95238205","longitude":"-92.97962946","id":"53fa094e794297250bb647b8","geo":{"lat":"44.95238205","long":"-92.97962946"}},{"DOWLKNUM":"10001100","lakeName":"St. Joe Lake","altName":"","rivName":"","launchName":"St. Joe Lake","launchType":"Carry-In","rampType":"Earth","numRamps":"1","numToilets":"0","dataUpdate":"5/13/2013","acres":"18.73","county":"Carver","latitude":"44.87556752","longitude":"-93.62076919","id":"53fa094e794297250bb647b9","geo":{"lat":"44.87556752","long":"-93.62076919"}},{"DOWLKNUM":"00000000","lakeName":"Rum River","altName":"","rivName":"Rum","launchName":"Rum River, Central Park S","launchType":"Carry-In","rampType":"Earth","numRamps":"1","numToilets":"1","dataUpdate":"5/13/2013","acres":"36.93","county":"Anoka","latitude":"45.28960061","longitude":"-93.38163974","id":"53fa094e794297250bb647ba","geo":{"lat":"45.28960061","long":"-93.38163974"}},{"DOWLKNUM":"82016700","lakeName":"White Bear","altName":"","rivName":"","launchName":"White Bear Lake (S)","launchType":"Carry-In","rampType":"Earth","numRamps":"1","numToilets":"2","dataUpdate":"5/13/2013","acres":"2427.66","county":"Ramsey","latitude":"45.07006459","longitude":"-92.99496991","id":"53fa094e794297250bb647bb","geo":{"lat":"45.07006459","long":"-92.99496991"}},{"DOWLKNUM":"00000000","lakeName":"Upper River","altName":"","rivName":"","launchName":"Upper Rice Lake","launchType":"Carry-In","rampType":"Earth","numRamps":"1","numToilets":"0","dataUpdate":"5/13/2013","acres":"36.93","county":"Isanti","latitude":"45.72469273","longitude":"-93.22352729","id":"53fa094e794297250bb647bc","geo":{"lat":"45.72469273","long":"-93.22352729"}},{"DOWLKNUM":"02000800","lakeName":"Rice Lake","altName":"","rivName":"","launchName":"Rice Lake","launchType":"Carry-In","rampType":"Earth","numRamps":"1","numToilets":"0","dataUpdate":"5/13/2013","acres":"371.22","county":"Anoka","latitude":"45.16228647","longitude":"-93.11443773","id":"53fa094e794297250bb647bd","geo":{"lat":"45.16228647","long":"-93.11443773"}},{"DOWLKNUM":"","lakeName":"St. Croix River","altName":"","rivName":"","launchName":"St. Croix River, Franconia Landing","launchType":"Trailer Launch","rampType":"Earth","numRamps":"1","numToilets":"1","dataUpdate":"5/13/2013","acres":"0","county":"Chisago","latitude":"45.36855101","longitude":"-92.68934363","id":"53fa094e794297250bb647be","geo":{"lat":"45.36855101","long":"-92.68934363"}},{"DOWLKNUM":"","lakeName":"Rum River","altName":"","rivName":"","launchName":"Rum River, River Meadows","launchType":"Trailer Launch","rampType":"Concrete","numRamps":"1","numToilets":"0","dataUpdate":"5/13/2013","acres":"0","county":"Anoka","latitude":"45.3635055","longitude":"-93.35959552","id":"53fa094e794297250bb647bf","geo":{"lat":"45.3635055","long":"-93.35959552"}},{"DOWLKNUM":"","lakeName":"Rum River","altName":"","rivName":"","launchName":"Rum River, Geranium","launchType":"Carry-In","rampType":"Gravel","numRamps":"1","numToilets":"0","dataUpdate":"5/13/2013","acres":"0","county":"Anoka","latitude":"45.28222979","longitude":"-93.40718884","id":"53fa094e794297250bb647c0","geo":{"lat":"45.28222979","long":"-93.40718884"}},{"DOWLKNUM":"","lakeName":"Sauk River","altName":"","rivName":"","launchName":"Sauk River, Richmond","launchType":"Carry-In","rampType":"Earth","numRamps":"1","numToilets":"0","dataUpdate":"5/13/2013","acres":"0","county":"Stearns","latitude":"45.45747271","longitude":"-94.53453459","id":"53fa094e794297250bb647c1","geo":{"lat":"45.45747271","long":"-94.53453459"}},{"DOWLKNUM":"","lakeName":"Sauk River","altName":"","rivName":"","launchName":"Sauk River, Mill Pond","launchType":"Trailer Launch","rampType":"Concrete","numRamps":"1","numToilets":"0","dataUpdate":"5/13/2013","acres":"0","county":"Stearns","latitude":"45.6791933","longitude":"-94.8191385","id":"53fa094e794297250bb647c2","geo":{"lat":"45.6791933","long":"-94.8191385"}},{"DOWLKNUM":"","lakeName":"Sandy Lake","altName":"","rivName":"","launchName":"Sandy Lake (S)","launchType":"Trailer Launch","rampType":"Earth","numRamps":"0","numToilets":"0","dataUpdate":"5/13/2013","acres":"0","county":"Sherburne","latitude":"45.48468065","longitude":"-93.51952572","id":"53fa094e794297250bb647c3","geo":{"lat":"45.48468065","long":"-93.51952572"}},{"DOWLKNUM":"","lakeName":"Round Lake","altName":"","rivName":"","launchName":"Round Lake","launchType":"Trailer Launch","rampType":"Gravel","numRamps":"1","numToilets":"0","dataUpdate":"5/13/2013","acres":"0","county":"Morrison","latitude":"46.25350767","longitude":"-94.53333938","id":"53fa094e794297250bb647c4","geo":{"lat":"46.25350767","long":"-94.53333938"}},{"DOWLKNUM":"","lakeName":"Sauk River, St. Martin","altName":"","rivName":"","launchName":"Sauk River, St. Martin","launchType":"Carry-In","rampType":"Earth","numRamps":"1","numToilets":"0","dataUpdate":"5/13/2013","acres":"0","county":"Stearns","latitude":"45.52022554","longitude":"-94.67884131","id":"53fa094e794297250bb647c5","geo":{"lat":"45.52022554","long":"-94.67884131"}},{"DOWLKNUM":"","lakeName":"Sauk Lake, Diamond Point","altName":"","rivName":"","launchName":"Sauk Lake, Diamond Point","launchType":"Trailer Launch","rampType":"Concrete","numRamps":"1","numToilets":"1","dataUpdate":"5/13/2013","acres":"0","county":"Todd","latitude":"45.81981827","longitude":"-94.91400255","id":"53fa094e794297250bb647c6","geo":{"lat":"45.81981827","long":"-94.91400255"}},{"DOWLKNUM":"","lakeName":"Shamineau Lake (W)","altName":"","rivName":"","launchName":"Shamineau Lake (W)","launchType":"Trailer Launch","rampType":"Concrete","numRamps":"1","numToilets":"0","dataUpdate":"5/13/2013","acres":"0","county":"Morrison","latitude":"46.24830054","longitude":"-94.57489081","id":"53fa094e794297250bb647c7","geo":{"lat":"46.24830054","long":"-94.57489081"}},{"DOWLKNUM":"71002200","lakeName":"West Hunter Lake","altName":"","rivName":"","launchName":"West Hunter Lake","launchType":"Trailer Launch","rampType":"Concrete","numRamps":"1","numToilets":"0","dataUpdate":"5/13/2013","acres":"59.96","county":"Sherburne","latitude":"45.43583093","longitude":"-93.52089273","id":"53fa094e794297250bb647c8","geo":{"lat":"45.43583093","long":"-93.52089273"}},{"DOWLKNUM":"48001200","lakeName":"Shakopee Lake","altName":"","rivName":"","launchName":"Shakopee Lake","launchType":"Trailer Launch","rampType":"Concrete","numRamps":"1","numToilets":"1","dataUpdate":"5/13/2013","acres":"621.81","county":"Mille Lacs","latitude":"46.10470277","longitude":"-93.72731689","id":"53fa094e794297250bb647c9","geo":{"lat":"46.10470277","long":"-93.72731689"}},{"DOWLKNUM":"00000000","lakeName":"Rum River","altName":"","rivName":"Rum","launchName":"Rum River, Mille Lacs Kathio SPK","launchType":"Trailer Launch","rampType":"Concrete","numRamps":"1","numToilets":"1","dataUpdate":"5/13/2013","acres":"36.93","county":"Mille Lacs","latitude":"46.12291601","longitude":"-93.76034812","id":"53fa094e794297250bb647ca","geo":{"lat":"46.12291601","long":"-93.76034812"}},{"DOWLKNUM":"49001600","lakeName":"Sullivan Lake","altName":"","rivName":"","launchName":"Sullivan Lake (W)","launchType":"Trailer Launch","rampType":"Gravel","numRamps":"1","numToilets":"0","dataUpdate":"5/13/2013","acres":"1103.38","county":"Morrison","latitude":"46.14235508","longitude":"-93.94773078","id":"53fa094e794297250bb647cb","geo":{"lat":"46.14235508","long":"-93.94773078"}},{"DOWLKNUM":"49001600","lakeName":"Sullivan Lake","altName":"","rivName":"","launchName":"Sullivan Lake (E)","launchType":"Trailer Launch","rampType":"Concrete","numRamps":"1","numToilets":"1","dataUpdate":"5/13/2013","acres":"1103.38","county":"Morrison","latitude":"46.14122014","longitude":"-93.93005243","id":"53fa094e794297250bb647cc","geo":{"lat":"46.14122014","long":"-93.93005243"}},{"DOWLKNUM":"77002100","lakeName":"Twin Lake","altName":"","rivName":"","launchName":"Twin Lakes","launchType":"Trailer Launch","rampType":"Concrete","numRamps":"1","numToilets":"0","dataUpdate":"5/13/2013","acres":"120.51","county":"Todd","latitude":"45.83889871","longitude":"-94.72578898","id":"53fa094e794297250bb647cd","geo":{"lat":"45.83889871","long":"-94.72578898"}},{"DOWLKNUM":"77008800","lakeName":"Turtle Lake","altName":"","rivName":"","launchName":"Turtle Lake","launchType":"Trailer Launch","rampType":"Concrete","numRamps":"1","numToilets":"0","dataUpdate":"5/13/2013","acres":"115.78","county":"Todd","latitude":"46.19322506","longitude":"-94.76936885","id":"53fa094e794297250bb647ce","geo":{"lat":"46.19322506","long":"-94.76936885"}},{"DOWLKNUM":"77000900","lakeName":"Trace Lake","altName":"","rivName":"","launchName":"Trace Lake","launchType":"Trailer Launch","rampType":"Concrete","numRamps":"1","numToilets":"0","dataUpdate":"5/13/2013","acres":"255.77","county":"Todd","latitude":"45.82539088","longitude":"-94.76092649","id":"53fa094e794297250bb647cf","geo":{"lat":"45.82539088","long":"-94.76092649"}},{"DOWLKNUM":"00000000","lakeName":"Sauk River","altName":"","rivName":"Sauk","launchName":"Sauk River, Sping Hill","launchType":"Carry-In","rampType":"Earth","numRamps":"1","numToilets":"1","dataUpdate":"5/13/2013","acres":"36.93","county":"Stearns","latitude":"45.52984999","longitude":"-94.77564457","id":"53fa094e794297250bb647d0","geo":{"lat":"45.52984999","long":"-94.77564457"}},{"DOWLKNUM":"49012700","lakeName":"Shamineau Lake","altName":"","rivName":"","launchName":"Shamineau Lake (NW)","launchType":"Trailer Launch","rampType":"Concrete","numRamps":"1","numToilets":"1","dataUpdate":"5/13/2013","acres":"1433.99","county":"Morrison","latitude":"46.26217277","longitude":"-94.63225394","id":"53fa094e794297250bb647d1","geo":{"lat":"46.26217277","long":"-94.63225394"}},{"DOWLKNUM":"86018000","lakeName":"School Section Lake","altName":"","rivName":"","launchName":"School Section Lake","launchType":"Carry-In","rampType":"Earth","numRamps":"1","numToilets":"0","dataUpdate":"5/13/2013","acres":"39.37","county":"Wright","latitude":"45.07569053","longitude":"-94.01325552","id":"53fa094e794297250bb647d2","geo":{"lat":"45.07569053","long":"-94.01325552"}},{"DOWLKNUM":"00000000","lakeName":"Sauk River","altName":"","rivName":"Sauk","launchName":"Sauk River, Pineview Park","launchType":"Carry-In","rampType":"Earth","numRamps":"1","numToilets":"1","dataUpdate":"5/13/2013","acres":"36.93","county":"Stearns","latitude":"45.55628901","longitude":"-94.24249491","id":"53fa094e794297250bb647d3","geo":{"lat":"45.55628901","long":"-94.24249491"}},{"DOWLKNUM":"00000000","lakeName":"Sauk River","altName":"","rivName":"Sauk","launchName":"Sauk River, Miller Landing","launchType":"Carry-In","rampType":"Earth","numRamps":"1","numToilets":"1","dataUpdate":"5/13/2013","acres":"36.93","county":"Stearns","latitude":"45.55178551","longitude":"-94.26495211","id":"53fa094e794297250bb647d4","geo":{"lat":"45.55178551","long":"-94.26495211"}},{"DOWLKNUM":"18025100","lakeName":"Sandbar Lake","altName":"Sandbar","rivName":"","launchName":"Sandbar Lake, Horseshoe","launchType":"Trailer Launch","rampType":"Plank","numRamps":"1","numToilets":"0","dataUpdate":"5/13/2013","acres":"922.01","county":"Crow Wing","latitude":"46.57127846","longitude":"-94.1056718","id":"53fa094e794297250bb647d5","geo":{"lat":"46.57127846","long":"-94.1056718"}},{"DOWLKNUM":"18024200","lakeName":"Upper Mission Lake","altName":"","rivName":"","launchName":"Upper Mission Lake","launchType":"Trailer Launch","rampType":"Plank","numRamps":"1","numToilets":"0","dataUpdate":"5/13/2013","acres":"874.67","county":"Crow Wing","latitude":"46.56238459","longitude":"-94.06992224","id":"53fa094e794297250bb647d6","geo":{"lat":"46.56238459","long":"-94.06992224"}},{"DOWLKNUM":"18023900","lakeName":"Silver Lake","altName":"","rivName":"","launchName":"Silver Lake","launchType":"Trailer Launch","rampType":"Plank","numRamps":"1","numToilets":"0","dataUpdate":"5/13/2013","acres":"208.41","county":"Crow Wing","latitude":"46.51125939","longitude":"-94.13185007","id":"53fa094e794297250bb647d7","geo":{"lat":"46.51125939","long":"-94.13185007"}},{"DOWLKNUM":"18016900","lakeName":"Stark Lake","altName":"","rivName":"","launchName":"Stark Lake","launchType":"Trailer Launch","rampType":"Plank","numRamps":"1","numToilets":"0","dataUpdate":"5/13/2013","acres":"217.29","county":"Crow Wing","latitude":"46.64350213","longitude":"-93.80289012","id":"53fa094e794297250bb647d8","geo":{"lat":"46.64350213","long":"-93.80289012"}},{"DOWLKNUM":"18027800","lakeName":"Pleasant Lake","altName":"","rivName":"","launchName":"Pleasant Lake","launchType":"Carry-In","rampType":"Earth","numRamps":"1","numToilets":"0","dataUpdate":"5/13/2013","acres":"22.05","county":"Crow Wing","latitude":"46.66938738","longitude":"-94.13870191","id":"53fa094e794297250bb647d9","geo":{"lat":"46.66938738","long":"-94.13870191"}},{"DOWLKNUM":"18017000","lakeName":"Upper Dean Lake","altName":"","rivName":"","launchName":"Upper Dean Lake","launchType":"Trailer Launch","rampType":"Plank","numRamps":"1","numToilets":"0","dataUpdate":"5/13/2013","acres":"259.23","county":"Crow Wing","latitude":"46.64407471","longitude":"-93.87709148","id":"53fa094e794297250bb647da","geo":{"lat":"46.64407471","long":"-93.87709148"}},{"DOWLKNUM":"01020400","lakeName":"Round Lake","altName":"","rivName":"","launchName":"Round Lake","launchType":"Trailer Launch","rampType":"Concrete","numRamps":"1","numToilets":"1","dataUpdate":"5/13/2013","acres":"733.12","county":"Crow Wing","latitude":"46.33038467","longitude":"-93.81678602","id":"53fa094e794297250bb647db","geo":{"lat":"46.33038467","long":"-93.81678602"}},{"DOWLKNUM":"18038600","lakeName":"Red Sand Lake","altName":"","rivName":"","launchName":"Red Sand Lake","launchType":"Trailer Launch","rampType":"Plank","numRamps":"1","numToilets":"0","dataUpdate":"5/13/2013","acres":"510.56","county":"Crow Wing","latitude":"46.38088616","longitude":"-94.28741104","id":"53fa094e794297250bb647dc","geo":{"lat":"46.38088616","long":"-94.28741104"}},{"DOWLKNUM":"18037900","lakeName":"White Sand Lake","altName":"","rivName":"","launchName":"White Sand Lake","launchType":"Trailer Launch","rampType":"Plank","numRamps":"1","numToilets":"1","dataUpdate":"5/13/2013","acres":"413.22","county":"Crow Wing","latitude":"46.35946965","longitude":"-94.28732949","id":"53fa094e794297250bb647dd","geo":{"lat":"46.35946965","long":"-94.28732949"}},{"DOWLKNUM":"18038700","lakeName":"Whipple Lake","altName":"","rivName":"","launchName":"Whipple Lake","launchType":"Trailer Launch","rampType":"Plank","numRamps":"1","numToilets":"1","dataUpdate":"5/13/2013","acres":"294.87","county":"Crow Wing","latitude":"46.36199048","longitude":"-94.30135652","id":"53fa094e794297250bb647de","geo":{"lat":"46.36199048","long":"-94.30135652"}},{"DOWLKNUM":"18013600","lakeName":"South Lake","altName":"Lower Long","rivName":"","launchName":"South Long Lake","launchType":"Trailer Launch","rampType":"Plank","numRamps":"1","numToilets":"1","dataUpdate":"5/13/2013","acres":"1294.87","county":"Crow Wing","latitude":"46.27529884","longitude":"-94.10351911","id":"53fa094e794297250bb647df","geo":{"lat":"46.27529884","long":"-94.10351911"}},{"DOWLKNUM":"18009600","lakeName":"Upper S Lake","altName":"","rivName":"","launchName":"Upper South Long Lake","launchType":"Trailer Launch","rampType":"Plank","numRamps":"1","numToilets":"1","dataUpdate":"5/13/2013","acres":"795.37","county":"Crow Wing","latitude":"46.29813537","longitude":"-94.05646169","id":"53fa094e794297250bb647e0","geo":{"lat":"46.29813537","long":"-94.05646169"}},{"DOWLKNUM":"18005300","lakeName":"Rice Lake","altName":"","rivName":"","launchName":"Rice Lake, Hesitatio","launchType":"Carry-In","rampType":"Earth","numRamps":"1","numToilets":"0","dataUpdate":"5/13/2013","acres":"161.75","county":"Crow Wing","latitude":"46.33912197","longitude":"-93.89023553","id":"53fa094e794297250bb647e1","geo":{"lat":"46.33912197","long":"-93.89023553"}},{"DOWLKNUM":"18001600","lakeName":"Rock Lake","altName":"","rivName":"","launchName":"Rock Lake","launchType":"Trailer Launch","rampType":"Concrete","numRamps":"1","numToilets":"0","dataUpdate":"5/13/2013","acres":"203.41","county":"Crow Wing","latitude":"46.17434592","longitude":"-93.89649054","id":"53fa094e794297250bb647e2","geo":{"lat":"46.17434592","long":"-93.89649054"}},{"DOWLKNUM":"","lakeName":"Portsmouth Pit","altName":"","rivName":"","launchName":"Portsmouth Pit","launchType":"Trailer Launch","rampType":"Plank","numRamps":"1","numToilets":"1","dataUpdate":"5/13/2013","acres":"0","county":"Crow Wing","latitude":"46.4874918","longitude":"-93.9738427","id":"53fa094e794297250bb647e3","geo":{"lat":"46.4874918","long":"-93.9738427"}},{"DOWLKNUM":"","lakeName":"Yawkey Pit","altName":"","rivName":"","launchName":"Yawkey Pit","launchType":"Carry-In","rampType":"Earth","numRamps":"0","numToilets":"0","dataUpdate":"5/13/2013","acres":"0","county":"Crow Wing","latitude":"46.50013801","longitude":"-93.9447513","id":"53fa094e794297250bb647e4","geo":{"lat":"46.50013801","long":"-93.9447513"}},{"DOWLKNUM":"","lakeName":"Sagamore Pit","altName":"","rivName":"","launchName":"Sagamore Pit","launchType":"Trailer Launch","rampType":"Plank","numRamps":"1","numToilets":"1","dataUpdate":"5/13/2013","acres":"0","county":"Crow Wing","latitude":"46.45192621","longitude":"-94.04873674","id":"53fa094e794297250bb647e5","geo":{"lat":"46.45192621","long":"-94.04873674"}},{"DOWLKNUM":"","lakeName":"Ross Lake","altName":"","rivName":"","launchName":"Ross Lake","launchType":"Trailer Launch","rampType":"Concrete","numRamps":"1","numToilets":"0","dataUpdate":"5/13/2013","acres":"0","county":"Crow Wing","latitude":"46.67375665","longitude":"-93.82094481","id":"53fa094e794297250bb647e6","geo":{"lat":"46.67375665","long":"-93.82094481"}},{"DOWLKNUM":"","lakeName":"Roger Lake","altName":"","rivName":"","launchName":"Roger Lake","launchType":"Trailer Launch","rampType":"Plank","numRamps":"1","numToilets":"0","dataUpdate":"5/13/2013","acres":"0","county":"Crow Wing","latitude":"46.66580783","longitude":"-93.90607274","id":"53fa094e794297250bb647e7","geo":{"lat":"46.66580783","long":"-93.90607274"}},{"DOWLKNUM":"18031000","lakeName":"Upper Whitefish Lake","altName":"","rivName":"","launchName":"Upper Whitefish Lake","launchType":"Trailer Launch","rampType":"Plank","numRamps":"1","numToilets":"1","dataUpdate":"5/13/2013","acres":"7715.23","county":"Crow Wing","latitude":"46.68204884","longitude":"-94.2855301","id":"53fa094e794297250bb647e8","geo":{"lat":"46.68204884","long":"-94.2855301"}},{"DOWLKNUM":"18040400","lakeName":"Middle Cullen Lake","altName":"","rivName":"","launchName":"Sibley Lake","launchType":"Trailer Launch","rampType":"Concrete","numRamps":"1","numToilets":"0","dataUpdate":"5/13/2013","acres":"436.76","county":"Crow Wing","latitude":"46.60932424","longitude":"-94.32117588","id":"53fa094e794297250bb647e9","geo":{"lat":"46.60932424","long":"-94.32117588"}},{"DOWLKNUM":"18021200","lakeName":"Ruth Lake","altName":"","rivName":"","launchName":"Ruth Lake","launchType":"Trailer Launch","rampType":"Plank","numRamps":"1","numToilets":"1","dataUpdate":"5/13/2013","acres":"599.18","county":"Crow Wing","latitude":"46.76010796","longitude":"-93.95498346","id":"53fa094e794297250bb647ea","geo":{"lat":"46.76010796","long":"-93.95498346"}},{"DOWLKNUM":"","lakeName":"Rabbit Lake","altName":"","rivName":"","launchName":"Rabbit Lake","launchType":"Trailer Launch","rampType":"Plank","numRamps":"1","numToilets":"1","dataUpdate":"5/13/2013","acres":"0","county":"Crow Wing","latitude":"46.52982834","longitude":"-93.92847717","id":"53fa094e794297250bb647eb","geo":{"lat":"46.52982834","long":"-93.92847717"}},{"DOWLKNUM":"18014500","lakeName":"Rice Lake","altName":"Rice Lake Reservoir","rivName":"","launchName":"Rice Lake , Lum Park","launchType":"Trailer Launch","rampType":"Concrete","numRamps":"2","numToilets":"1","dataUpdate":"5/13/2013","acres":"322.43","county":"Crow Wing","latitude":"46.37082824","longitude":"-94.16597231","id":"53fa094e794297250bb647ec","geo":{"lat":"46.37082824","long":"-94.16597231"}},{"DOWLKNUM":"18016100","lakeName":"Sebie Lake","altName":"Sebre","rivName":"","launchName":"Sebie Lake","launchType":"Trailer Launch","rampType":"Earth","numRamps":"1","numToilets":"0","dataUpdate":"5/13/2013","acres":"185.31","county":"Crow Wing","latitude":"46.16426984","longitude":"-94.32793302","id":"53fa094e794297250bb647ed","geo":{"lat":"46.16426984","long":"-94.32793302"}},{"DOWLKNUM":"18037300","lakeName":"Round Lake","altName":"","rivName":"","launchName":"Round Lake","launchType":"Trailer Launch","rampType":"Plank","numRamps":"1","numToilets":"1","dataUpdate":"5/13/2013","acres":"1650.08","county":"Crow Wing","latitude":"46.44551949","longitude":"-94.28559453","id":"53fa094e794297250bb647ee","geo":{"lat":"46.44551949","long":"-94.28559453"}},{"DOWLKNUM":"01011100","lakeName":"Washburn Lake","altName":"","rivName":"","launchName":"Washburn Lake","launchType":"Trailer Launch","rampType":"Earth","numRamps":"1","numToilets":"0","dataUpdate":"5/13/2013","acres":"61.8","county":"Aitkin","latitude":"46.9770344","longitude":"-93.45896425","id":"53fa094e794297250bb647ef","geo":{"lat":"46.9770344","long":"-93.45896425"}},{"DOWLKNUM":"01006200","lakeName":"Big Sandy Lake","altName":"","rivName":"","launchName":"Sandy River, Hwy 65","launchType":"Trailer Launch","rampType":"Concrete","numRamps":"1","numToilets":"0","dataUpdate":"5/13/2013","acres":"6438.77","county":"Aitkin","latitude":"46.72387324","longitude":"-93.30264562","id":"53fa094e794297250bb647f0","geo":{"lat":"46.72387324","long":"-93.30264562"}},{"DOWLKNUM":"00000000","lakeName":"Snake River","altName":"","rivName":"Snake","launchName":"Snake River, Silver Star Rd","launchType":"Trailer Launch","rampType":"Gravel","numRamps":"1","numToilets":"0","dataUpdate":"5/13/2013","acres":"36.93","county":"Aitkin","latitude":"46.19493129","longitude":"-93.25048558","id":"53fa094e794297250bb647f1","geo":{"lat":"46.19493129","long":"-93.25048558"}},{"DOWLKNUM":"00000000","lakeName":"Snake  River","altName":"","rivName":"Snake","launchName":"Snake River (S), Aitkin Co Park","launchType":"Carry-In","rampType":"Earth","numRamps":"1","numToilets":"1","dataUpdate":"5/13/2013","acres":"36.93","county":"Aitkin","latitude":"46.17019279","longitude":"-93.2582822","id":"53fa094e794297250bb647f2","geo":{"lat":"46.17019279","long":"-93.2582822"}},{"DOWLKNUM":"00000000","lakeName":"Snake River","altName":"","rivName":"Snake","launchName":"Snake River, Bear Creek","launchType":"Carry-In","rampType":"Earth","numRamps":"0","numToilets":"0","dataUpdate":"5/13/2013","acres":"36.93","county":"Aitkin","latitude":"46.24680359","longitude":"-93.26251687","id":"53fa094e794297250bb647f3","geo":{"lat":"46.24680359","long":"-93.26251687"}},{"DOWLKNUM":"01010200","lakeName":"Wilkins Lake","altName":"","rivName":"","launchName":"Wilkins Lake","launchType":"Trailer Launch","rampType":"Concrete","numRamps":"1","numToilets":"1","dataUpdate":"5/13/2013","acres":"348.07","county":"Aitkin","latitude":"46.63803304","longitude":"-93.48879933","id":"53fa094e794297250bb647f4","geo":{"lat":"46.63803304","long":"-93.48879933"}},{"DOWLKNUM":"01005800","lakeName":"Vanduse Lake","altName":"","rivName":"","launchName":"Vanduse Lake","launchType":"Trailer Launch","rampType":"Earth","numRamps":"1","numToilets":"0","dataUpdate":"5/13/2013","acres":"239.5","county":"Aitkin","latitude":"46.97806812","longitude":"-93.24457207","id":"53fa094e794297250bb647f5","geo":{"lat":"46.97806812","long":"-93.24457207"}},{"DOWLKNUM":"01007400","lakeName":"Turner Lake","altName":"","rivName":"","launchName":"Turner Lake","launchType":"Carry-In","rampType":"Earth","numRamps":"1","numToilets":"0","dataUpdate":"5/13/2013","acres":"63.22","county":"Aitkin","latitude":"46.60784805","longitude":"-93.4103234","id":"53fa094e794297250bb647f6","geo":{"lat":"46.60784805","long":"-93.4103234"}},{"DOWLKNUM":"01001500","lakeName":"Shumway Lake","altName":"Green","rivName":"","launchName":"Shumway Lake","launchType":"Trailer Launch","rampType":"Concrete","numRamps":"1","numToilets":"1","dataUpdate":"5/13/2013","acres":"74.18","county":"Aitkin","latitude":"46.82849073","longitude":"-93.1504481","id":"53fa094e794297250bb647f7","geo":{"lat":"46.82849073","long":"-93.1504481"}},{"DOWLKNUM":"01002300","lakeName":"Round Lake","altName":"","rivName":"","launchName":"Round Lake","launchType":"Trailer Launch","rampType":"Concrete","numRamps":"1","numToilets":"0","dataUpdate":"5/13/2013","acres":"553.49","county":"Aitkin","latitude":"46.7035909","longitude":"-93.20071807","id":"53fa094e794297250bb647f8","geo":{"lat":"46.7035909","long":"-93.20071807"}},{"DOWLKNUM":"01013700","lakeName":"Round Lake","altName":"","rivName":"","launchName":"Round Lake","launchType":"Trailer Launch","rampType":"Concrete","numRamps":"1","numToilets":"1","dataUpdate":"5/13/2013","acres":"633.79","county":"Aitkin","latitude":"46.72021866","longitude":"-93.65910224","id":"53fa094e794297250bb647f9","geo":{"lat":"46.72021866","long":"-93.65910224"}},{"DOWLKNUM":"01010900","lakeName":"Taylor Lake","altName":"","rivName":"","launchName":"Taylor Lake","launchType":"Carry-In","rampType":"Earth","numRamps":"1","numToilets":"0","dataUpdate":"5/13/2013","acres":"54.95","county":"Aitkin","latitude":"46.9959919","longitude":"-93.51244719","id":"53fa094e794297250bb647fa","geo":{"lat":"46.9959919","long":"-93.51244719"}},{"DOWLKNUM":"01013600","lakeName":"Waukenabo Lake","altName":"","rivName":"","launchName":"Waukenabo Lake","launchType":"Trailer Launch","rampType":"Concrete","numRamps":"1","numToilets":"0","dataUpdate":"5/13/2013","acres":"666.07","county":"Aitkin","latitude":"46.72813956","longitude":"-93.62642304","id":"53fa094e794297250bb647fb","geo":{"lat":"46.72813956","long":"-93.62642304"}},{"DOWLKNUM":"00000000","lakeName":"Sandy  River","altName":"","rivName":"","launchName":"Sandy River, Flowage","launchType":"Trailer Launch","rampType":"Earth","numRamps":"1","numToilets":"0","dataUpdate":"5/13/2013","acres":"36.93","county":"Aitkin","latitude":"46.69029742","longitude":"-93.33671875","id":"53fa094e794297250bb647fc","geo":{"lat":"46.69029742","long":"-93.33671875"}},{"DOWLKNUM":"01007200","lakeName":"Rock Lake","altName":"","rivName":"","launchName":"Rock Lake","launchType":"Trailer Launch","rampType":"Concrete","numRamps":"1","numToilets":"0","dataUpdate":"5/13/2013","acres":"341.47","county":"Aitkin","latitude":"46.6379275","longitude":"-93.39484298","id":"53fa094e794297250bb647fd","geo":{"lat":"46.6379275","long":"-93.39484298"}},{"DOWLKNUM":"01014800","lakeName":"White Elk Lake","altName":"","rivName":"","launchName":"White Elk Lake","launchType":"Trailer Launch","rampType":"Gravel","numRamps":"1","numToilets":"0","dataUpdate":"5/13/2013","acres":"686.29","county":"Aitkin","latitude":"46.8034974","longitude":"-93.69620132","id":"53fa094e794297250bb647fe","geo":{"lat":"46.8034974","long":"-93.69620132"}},{"DOWLKNUM":"01014600","lakeName":"Ripple Lake","altName":"Mud","rivName":"","launchName":"Ripple Lake","launchType":"Trailer Launch","rampType":"Plank","numRamps":"1","numToilets":"0","dataUpdate":"5/13/2013","acres":"629.23","county":"Aitkin","latitude":"46.46241226","longitude":"-93.68992375","id":"53fa094e794297250bb647ff","geo":{"lat":"46.46241226","long":"-93.68992375"}},{"DOWLKNUM":"01017800","lakeName":"Spirit Lake","altName":"","rivName":"","launchName":"Spirit Lake","launchType":"Trailer Launch","rampType":"Concrete","numRamps":"1","numToilets":"0","dataUpdate":"5/13/2013","acres":"523.59","county":"Aitkin","latitude":"46.43263785","longitude":"-93.7153998","id":"53fa094e794297250bb64800","geo":{"lat":"46.43263785","long":"-93.7153998"}},{"DOWLKNUM":"01011500","lakeName":"Wladimiraf Lake","altName":"Wladimiraf","rivName":"","launchName":"Wladimiraf Lake","launchType":"Trailer Launch","rampType":"Concrete","numRamps":"1","numToilets":"0","dataUpdate":"5/13/2013","acres":"434.46","county":"Aitkin","latitude":"46.48376512","longitude":"-93.5899875","id":"53fa094e794297250bb64801","geo":{"lat":"46.48376512","long":"-93.5899875"}},{"DOWLKNUM":"01012000","lakeName":"Section 12 Lake","altName":"","rivName":"","launchName":"Section 12 Lake","launchType":"Trailer Launch","rampType":"Concrete","numRamps":"1","numToilets":"1","dataUpdate":"5/13/2013","acres":"170","county":"Aitkin","latitude":"46.48364049","longitude":"-93.58779437","id":"53fa094e794297250bb64802","geo":{"lat":"46.48364049","long":"-93.58779437"}},{"DOWLKNUM":"00000000","lakeName":"Root River","altName":"","rivName":"","launchName":"Root River","launchType":"Trailer Launch","rampType":"Concrete","numRamps":"1","numToilets":"0","dataUpdate":"5/13/2013","acres":"36.93","county":"Koochiching","latitude":"48.48940136","longitude":"-93.32374491","id":"53fa094e794297250bb64803","geo":{"lat":"48.48940136","long":"-93.32374491"}},{"DOWLKNUM":"00000000","lakeName":"Stuart River","altName":"","rivName":"","launchName":"Stuart River","launchType":"Carry-In","rampType":"Other","numRamps":"0","numToilets":"0","dataUpdate":"5/13/2013","acres":"36.93","county":"St. Louis","latitude":"48.11493353","longitude":"-91.98956426","id":"53fa094e794297250bb64804","geo":{"lat":"48.11493353","long":"-91.98956426"}},{"DOWLKNUM":"38072900","lakeName":"Wood Lake","altName":"","rivName":"","launchName":"Wood Lake","launchType":"Carry-In","rampType":"Other","numRamps":"0","numToilets":"0","dataUpdate":"5/13/2013","acres":"617.29","county":"Lake","latitude":"47.97031048","longitude":"-91.59675229","id":"53fa094e794297250bb64805","geo":{"lat":"47.97031048","long":"-91.59675229"}},{"DOWLKNUM":"00000000","lakeName":"S Fork Kawishiwi River","altName":"","rivName":"","launchName":"South Fork Kawishiwi River (N)","launchType":"Carry-In","rampType":"Other","numRamps":"0","numToilets":"0","dataUpdate":"5/13/2013","acres":"36.93","county":"Lake","latitude":"47.84612346","longitude":"-91.66632849","id":"53fa094e794297250bb64806","geo":{"lat":"47.84612346","long":"-91.66632849"}},{"DOWLKNUM":"69004800","lakeName":"Round Lake","altName":"","rivName":"","launchName":"Round Lake","launchType":"Carry-In","rampType":"Other","numRamps":"0","numToilets":"0","dataUpdate":"5/13/2013","acres":"327.45","county":"St. Louis","latitude":"47.47789661","longitude":"-91.81927068","id":"53fa094e794297250bb64807","geo":{"lat":"47.47789661","long":"-91.81927068"}},{"DOWLKNUM":"00000000","lakeName":"Sturgeon  River","altName":"","rivName":"","launchName":"Sturgeon River, Co Rd 73","launchType":"Carry-In","rampType":"Earth","numRamps":"0","numToilets":"0","dataUpdate":"5/13/2013","acres":"36.93","county":"St. Louis","latitude":"47.73305378","longitude":"-92.8653713","id":"53fa094e794297250bb64808","geo":{"lat":"47.73305378","long":"-92.8653713"}},{"DOWLKNUM":"00000000","lakeName":"Vermilion River","altName":"","rivName":"Vermilion","launchName":"Vermilion River Co Rd 491","launchType":"Carry-In","rampType":"Earth","numRamps":"1","numToilets":"1","dataUpdate":"5/13/2013","acres":"36.93","county":"St. Louis","latitude":"48.26473855","longitude":"-92.56637273","id":"53fa094e794297250bb64809","geo":{"lat":"48.26473855","long":"-92.56637273"}},{"DOWLKNUM":"00000000","lakeName":"Vermilion River","altName":"","rivName":"","launchName":"Vermilion River, 8 Mile creek","launchType":"Carry-In","rampType":"Earth","numRamps":"0","numToilets":"0","dataUpdate":"5/13/2013","acres":"36.93","county":"St. Louis","latitude":"48.05460605","longitude":"-92.48091574","id":"53fa094e794297250bb6480a","geo":{"lat":"48.05460605","long":"-92.48091574"}},{"DOWLKNUM":"69018100","lakeName":"Slim Lake","altName":"","rivName":"","launchName":"Slim Lake","launchType":"Carry-In","rampType":"Other","numRamps":"0","numToilets":"0","dataUpdate":"5/13/2013","acres":"312.14","county":"St. Louis","latitude":"47.99745414","longitude":"-91.96658844","id":"53fa094e794297250bb6480b","geo":{"lat":"47.99745414","long":"-91.96658844"}},{"DOWLKNUM":"","lakeName":"Turtle River Lake (W)","altName":"","rivName":"","launchName":"Turtle River Lake (W)","launchType":"Trailer Launch","rampType":"Concrete","numRamps":"1","numToilets":"0","dataUpdate":"5/13/2013","acres":"0","county":"Beltrami","latitude":"47.58944952","longitude":"-94.75012782","id":"53fa094e794297250bb6480c","geo":{"lat":"47.58944952","long":"-94.75012782"}},{"DOWLKNUM":"","lakeName":"Silver Lake","altName":"","rivName":"","launchName":"Silver Lake","launchType":"Carry-In","rampType":"Earth","numRamps":"1","numToilets":"0","dataUpdate":"5/13/2013","acres":"0","county":"Beltrami","latitude":"47.46795089","longitude":"-94.61294127","id":"53fa094e794297250bb6480d","geo":{"lat":"47.46795089","long":"-94.61294127"}},{"DOWLKNUM":"15008400","lakeName":"Solberg Lake","altName":"","rivName":"","launchName":"Solberg Lake","launchType":"Carry-In","rampType":"Earth","numRamps":"1","numToilets":"0","dataUpdate":"5/13/2013","acres":"54.71","county":"Clearwater","latitude":"47.62073887","longitude":"-95.31098468","id":"53fa094e794297250bb6480e","geo":{"lat":"47.62073887","long":"-95.31098468"}},{"DOWLKNUM":"04030700","lakeName":"Sandy Lake","altName":"","rivName":"","launchName":"Sandy Lake","launchType":"Trailer Launch","rampType":"Sand","numRamps":"1","numToilets":"0","dataUpdate":"5/13/2013","acres":"103.37","county":"Beltrami","latitude":"47.71396459","longitude":"-95.08709848","id":"53fa094e794297250bb6480f","geo":{"lat":"47.71396459","long":"-95.08709848"}},{"DOWLKNUM":"04019800","lakeName":"Puposky Lake","altName":"","rivName":"","launchName":"Puposky Lake","launchType":"Carry-In","rampType":"Earth","numRamps":"1","numToilets":"0","dataUpdate":"5/13/2013","acres":"2177.2","county":"Beltrami","latitude":"47.67915086","longitude":"-94.91087573","id":"53fa094e794297250bb64810","geo":{"lat":"47.67915086","long":"-94.91087573"}},{"DOWLKNUM":"04012400","lakeName":"Sandy Lake","altName":"","rivName":"","launchName":"Sandy Lake","launchType":"Trailer Launch","rampType":"Concrete","numRamps":"1","numToilets":"0","dataUpdate":"5/13/2013","acres":"261.33","county":"Beltrami","latitude":"47.70446647","longitude":"-94.79148217","id":"53fa094e794297250bb64811","geo":{"lat":"47.70446647","long":"-94.79148217"}},{"DOWLKNUM":"04007900","lakeName":"Wolf Lake","altName":"Big Wolf","rivName":"","launchName":"Wolf Lake","launchType":"Trailer Launch","rampType":"Concrete","numRamps":"1","numToilets":"1","dataUpdate":"5/13/2013","acres":"1073.37","county":"Beltrami","latitude":"47.41000706","longitude":"-94.69845703","id":"53fa094e794297250bb64812","geo":{"lat":"47.41000706","long":"-94.69845703"}},{"DOWLKNUM":"00000000","lakeName":"Turtle  River","altName":"","rivName":"","launchName":"Turtle River Lake (N)","launchType":"Trailer Launch","rampType":"Other","numRamps":"0","numToilets":"0","dataUpdate":"5/13/2013","acres":"36.93","county":"Beltrami","latitude":"47.59978384","longitude":"-94.74902057","id":"53fa094e794297250bb64813","geo":{"lat":"47.59978384","long":"-94.74902057"}},{"DOWLKNUM":"00000000","lakeName":"Turtle  River","altName":"","rivName":"","launchName":"Turtle River, Co Rd 22","launchType":"Carry-In","rampType":"Earth","numRamps":"1","numToilets":"0","dataUpdate":"5/13/2013","acres":"36.93","county":"Beltrami","latitude":"47.58584887","longitude":"-94.64795966","id":"53fa094e794297250bb64814","geo":{"lat":"47.58584887","long":"-94.64795966"}},{"DOWLKNUM":"04003400","lakeName":"Rabideau Lake","altName":"","rivName":"","launchName":"Rabideau Lake","launchType":"Trailer Launch","rampType":"Concrete","numRamps":"1","numToilets":"0","dataUpdate":"5/13/2013","acres":"680.34","county":"Beltrami","latitude":"47.64127566","longitude":"-94.50179958","id":"53fa094e794297250bb64815","geo":{"lat":"47.64127566","long":"-94.50179958"}},{"DOWLKNUM":"04005300","lakeName":"South Twin Lake","altName":"","rivName":"","launchName":"South Twin Lake","launchType":"Trailer Launch","rampType":"Concrete","numRamps":"1","numToilets":"1","dataUpdate":"5/13/2013","acres":"221.54","county":"Beltrami","latitude":"47.58259883","longitude":"-94.57516654","id":"53fa094e794297250bb64816","geo":{"lat":"47.58259883","long":"-94.57516654"}},{"DOWLKNUM":"15014000","lakeName":"Second Lake","altName":"","rivName":"","launchName":"Second Lake","launchType":"Trailer Launch","rampType":"Earth","numRamps":"1","numToilets":"0","dataUpdate":"5/13/2013","acres":"72.29","county":"Clearwater","latitude":"47.52026073","longitude":"-95.47958504","id":"53fa094e794297250bb64817","geo":{"lat":"47.52026073","long":"-95.47958504"}},{"DOWLKNUM":"00000000","lakeName":"Upper River","altName":"","rivName":"","launchName":"Upper Rice Lake (S)","launchType":"Carry-In","rampType":"Earth","numRamps":"1","numToilets":"0","dataUpdate":"5/13/2013","acres":"36.93","county":"Clearwater","latitude":"47.38102085","longitude":"-95.29686399","id":"53fa094e794297250bb64818","geo":{"lat":"47.38102085","long":"-95.29686399"}},{"DOWLKNUM":"15006000","lakeName":"Walker Brook Lake","altName":"","rivName":"","launchName":"Walker Brook Lake","launchType":"Trailer Launch","rampType":"Concrete","numRamps":"1","numToilets":"0","dataUpdate":"5/13/2013","acres":"95.23","county":"Clearwater","latitude":"47.49082601","longitude":"-95.3019263","id":"53fa094e794297250bb64819","geo":{"lat":"47.49082601","long":"-95.3019263"}},{"DOWLKNUM":"80002200","lakeName":"Yeager Lake","altName":"","rivName":"","launchName":"Yeager Lake","launchType":"Carry-In","rampType":"Earth","numRamps":"1","numToilets":"0","dataUpdate":"5/13/2013","acres":"79.43","county":"Wadena","latitude":"46.70264726","longitude":"-94.96574498","id":"53fa094e794297250bb6481a","geo":{"lat":"46.70264726","long":"-94.96574498"}},{"DOWLKNUM":"00000000","lakeName":"Shell  River","altName":"","rivName":"","launchName":"Shell River","launchType":"Trailer Launch","rampType":"Concrete","numRamps":"1","numToilets":"1","dataUpdate":"5/13/2013","acres":"36.93","county":"Wadena","latitude":"46.79244569","longitude":"-94.94641932","id":"53fa094e794297250bb6481b","geo":{"lat":"46.79244569","long":"-94.94641932"}},{"DOWLKNUM":"11049300","lakeName":"Welsh Lake","altName":"Welsh","rivName":"","launchName":"Welsh Lake","launchType":"Trailer Launch","rampType":"Concrete","numRamps":"1","numToilets":"0","dataUpdate":"5/13/2013","acres":"194.97","county":"Cass","latitude":"47.25618275","longitude":"-94.55494249","id":"53fa094e794297250bb6481c","geo":{"lat":"47.25618275","long":"-94.55494249"}},