[{"DOWLKNUM":"02000300","lakeName":"Otter Lake","altName":"","rivName":"","launchName":"Otter Lake","launchType":"Trailer Launch","rampType":"Earth","numRamps":"1","numToilets":"1","dataUpdate":"9/29/2011","acres":"302.21","county":"Ramsey","geo":{"lat":45.11648276,"lng":-93.04044885}},{"DOWLKNUM":"69061100","lakeName":"Horseshoe Lake","altName":"Horseshoe","rivName":"","launchName":"Horseshoe Lake","launchType":"Carry-In","rampType":"Earth","numRamps":"1","numToilets":"0","dataUpdate":"9/29/2011","acres":"77.15","county":"St. Louis","geo":{"lat":47.46079408,"lng":-92.43329007}},{"DOWLKNUM":"38069100","lakeName":"August Lake","altName":"","rivName":"","launchName":"August Lake","launchType":"Carry-In","rampType":"Earth","numRamps":"1","numToilets":"0","dataUpdate":"12/15/2011","acres":"228.67","county":"Lake","geo":{"lat":47.76611627,"lng":-91.59738401}},{"DOWLKNUM":"38067100","lakeName":"Two Deer Lake","altName":"Pickerel","rivName":"","launchName":"Two Deer Lake","launchType":"Carry-In","rampType":"Earth","numRamps":"1","numToilets":"0","dataUpdate":"12/15/2011","acres":"44.72","county":"Lake","geo":{"lat":47.68742332,"lng":-91.57605057}},{"DOWLKNUM":"38055300","lakeName":"Bearskin Lake","altName":"Bearskin","rivName":"","launchName":"Bearskin Lake","launchType":"Carry-In","rampType":"Earth","numRamps":"1","numToilets":"0","dataUpdate":"12/15/2011","acres":"25.55","county":"Lake","geo":{"lat":47.69250948,"lng":-91.52639966}},{"DOWLKNUM":"69069400","lakeName":"Unknown","altName":"","rivName":"","launchName":"Rainy Lake, Four Islands Resort","launchType":"Trailer Launch","rampType":"Other","numRamps":"0","numToilets":"0","dataUpdate":"9/29/2011","acres":"44732.82","county":"Koochiching","geo":{"lat":48.60732026,"lng":-93.1880572}},{"DOWLKNUM":"69069400","lakeName":"Rainy Lake","altName":"","rivName":"","launchName":"Rainy Lake, Lodge","launchType":"Trailer Launch","rampType":"Other","numRamps":"0","numToilets":"0","dataUpdate":"9/29/2011","acres":"44732.82","county":"Koochiching","geo":{"lat":48.59939022,"lng":-93.21375773}},{"DOWLKNUM":"","lakeName":"St. Louis River, UMD Kayak Center","altName":"","rivName":"","launchName":"St. Louis River, UMD Kayak Center","launchType":"Carry-In","rampType":"Unknown","numRamps":"0","numToilets":"0","dataUpdate":"3/7/2012","acres":"0","county":"Carlton","geo":{"lat":46.66547457,"lng":-92.40357479}},{"DOWLKNUM":"38008000","lakeName":"Kawishiwi Lake","altName":"","rivName":"","launchName":"Kawishiwi Lake","launchType":"Carry-In","rampType":"Earth","numRamps":"0","numToilets":"0","dataUpdate":"12/15/2011","acres":"371.64","county":"Lake","geo":{"lat":47.83857909,"lng":-91.10332046}},{"DOWLKNUM":"38073600","lakeName":"Harris Lake","altName":"","rivName":"","launchName":"Harris Lake","launchType":"Carry-In","rampType":"Earth","numRamps":"1","numToilets":"0","dataUpdate":"12/15/2011","acres":"122.28","county":"Lake","geo":{"lat":47.76310756,"lng":-91.66880405}},{"DOWLKNUM":"38055100","lakeName":"Beetle Lake","altName":"","rivName":"","launchName":"Beetle Lake","launchType":"Carry-In","rampType":"Earth","numRamps":"1","numToilets":"0","dataUpdate":"12/15/2011","acres":"33.29","county":"Lake","geo":{"lat":47.69630249,"lng":-91.52747979}},{"DOWLKNUM":"69073000","lakeName":"Sandy Lake","altName":"","rivName":"","launchName":"Sandy Lake","launchType":"Carry-In","rampType":"Other","numRamps":"0","numToilets":"0","dataUpdate":"9/29/2011","acres":"119.3","county":"St. Louis","geo":{"lat":47.62075854,"lng":-92.59829865}},{"DOWLKNUM":"69032900","lakeName":"Meander Lake","altName":"","rivName":"","launchName":"Meander Lake","launchType":"Carry-In","rampType":"Earth","numRamps":"1","numToilets":"1","dataUpdate":"12/15/2011","acres":"98.7","county":"St. Louis","geo":{"lat":48.13463362,"lng":-92.14564929}},{"DOWLKNUM":"69058900","lakeName":"Maude Lake","altName":"","rivName":"","launchName":"Maude Lake","launchType":"Carry-In","rampType":"Earth","numRamps":"1","numToilets":"0","dataUpdate":"12/15/2011","acres":"120.16","county":"St. Louis","geo":{"lat":48.10671098,"lng":-92.34676254}},{"DOWLKNUM":"69058800","lakeName":"Pauline Lake","altName":"","rivName":"","launchName":"Pauline Lake","launchType":"Carry-In","rampType":"Earth","numRamps":"1","numToilets":"1","dataUpdate":"12/15/2011","acres":"63.06","county":"St. Louis","geo":{"lat":48.12721516,"lng":-92.3336456}},{"DOWLKNUM":"69000300","lakeName":"Birch Lake","altName":"","rivName":"","launchName":"Birch Lake, Hwy 1","launchType":"Trailer Launch","rampType":"Other","numRamps":"0","numToilets":"0","dataUpdate":"9/29/2011","acres":"7073.72","county":"Lake","geo":{"lat":47.81496832,"lng":-91.74399503}},{"DOWLKNUM":"09016700","lakeName":"St. Louis River, Fond du Lac Reservoir","altName":"","rivName":"","launchName":"St. Louis River, Fond du Lac Reservoir","launchType":"Carry-In","rampType":"Unknown","numRamps":"0","numToilets":"0","dataUpdate":"3/7/2012","acres":"200.95","county":"Carlton","geo":{"lat":46.66811387,"lng":-92.30780404}},{"DOWLKNUM":"69069400","lakeName":"Elk's Bay","altName":"","rivName":"","launchName":"Rainy Lake, Elk's Bay","launchType":"Trailer Launch","rampType":"Other","numRamps":"1","numToilets":"0","dataUpdate":"12/15/2011","acres":"44732.82","county":"Koochiching","geo":{"lat":48.61236455,"lng":-93.26681785}},{"DOWLKNUM":"00000000","lakeName":"St. Croix River","altName":"","rivName":"St. Croix","launchName":"St. Croix River, Little Yellow Banks","launchType":"Carry-In","rampType":"Earth","numRamps":"0","numToilets":"0","dataUpdate":"12/15/2011","acres":"36.93","county":"Pine","geo":{"lat":45.97538213,"lng":-92.54159035}},{"DOWLKNUM":"00000000","lakeName":"St. Croix River","altName":"","rivName":"St. Croix","launchName":"St. Croix River, St. Croix SPK #2","launchType":"Trailer Launch","rampType":"Concrete","numRamps":"1","numToilets":"0","dataUpdate":"9/29/2011","acres":"36.93","county":"Pine","geo":{"lat":45.95040549,"lng":-92.56831705}},{"DOWLKNUM":"00000000","lakeName":"Island  River","altName":"","rivName":"","launchName":"Island River (N)","launchType":"Carry-In","rampType":"Earth","numRamps":"1","numToilets":"0","dataUpdate":"12/15/2011","acres":"36.93","county":"Lake","geo":{"lat":47.79278134,"lng":-91.31965672}},{"DOWLKNUM":"00000000","lakeName":"St Louis River","altName":"","rivName":"St. Louis","launchName":"St. Louis River, Cloquet","launchType":"Trailer Launch","rampType":"Concrete","numRamps":"1","numToilets":"1","dataUpdate":"9/29/2011","acres":"36.93","county":"Carlton","geo":{"lat":46.72731262,"lng":-92.46397552}},{"DOWLKNUM":"69017600","lakeName":"Astrid Lake","altName":"","rivName":"","launchName":"Astrid Lake","launchType":"Carry-In","rampType":"Earth","numRamps":"1","numToilets":"0","dataUpdate":"12/15/2011","acres":"72.18","county":"St. Louis","geo":{"lat":48.11025995,"lng":-92.33527415}},{"DOWLKNUM":"69028600","lakeName":"Pickerel Lake","altName":"","rivName":"","launchName":"Pickerel Lake","launchType":"Carry-In","rampType":"Other","numRamps":"0","numToilets":"0","dataUpdate":"9/29/2011","acres":"39.77","county":"St. Louis","geo":{"lat":47.83280901,"lng":-92.08810974}},{"DOWLKNUM":"38070300","lakeName":"Little Gabbro Lake","altName":"","rivName":"","launchName":"Little Gabbro Lake","launchType":"Carry-In","rampType":"Earth","numRamps":"1","numToilets":"0","dataUpdate":"12/15/2011","acres":"151.38","county":"Lake","geo":{"lat":47.85049304,"lng":-91.62904322}},{"DOWLKNUM":"","lakeName":"Thomson Reservoir","altName":"","rivName":"","launchName":"Thomson Reservoir","launchType":"Carry-In","rampType":"Earth","numRamps":"0","numToilets":"1","dataUpdate":"12/15/2011","acres":"0","county":"Carlton","geo":{"lat":46.70558444,"lng":-92.42257014}},{"DOWLKNUM":"38066400","lakeName":"Dunnigan Lake","altName":"","rivName":"","launchName":"Dunnigan Lake","launchType":"Carry-In","rampType":"Earth","numRamps":"1","numToilets":"0","dataUpdate":"12/15/2011","acres":"81.13","county":"Lake","geo":{"lat":47.70415913,"lng":-91.63520724}},{"DOWLKNUM":"38068800","lakeName":"Norway Lake","altName":"","rivName":"","launchName":"Norway Lake","launchType":"Carry-In","rampType":"Other","numRamps":"0","numToilets":"0","dataUpdate":"9/29/2011","acres":"12.19","county":"Lake","geo":{"lat":47.79142093,"lng":-91.58516506}},{"DOWLKNUM":"38068700","lakeName":"Shamrock Lake","altName":"","rivName":"","launchName":"Shamrock Lake","launchType":"Carry-In","rampType":"Earth","numRamps":"1","numToilets":"0","dataUpdate":"12/15/2011","acres":"55.65","county":"Lake","geo":{"lat":47.71800532,"lng":-91.61929543}},{"DOWLKNUM":"38055000","lakeName":"Surprise Lake","altName":"","rivName":"","launchName":"Surprise Lake","launchType":"Carry-In","rampType":"Earth","numRamps":"1","numToilets":"0","dataUpdate":"12/15/2011","acres":"37.67","county":"Lake","geo":{"lat":47.70882314,"lng":-91.52713124}},{"DOWLKNUM":"38073500","lakeName":"Sand Lake","altName":"","rivName":"","launchName":"Sand Lake","launchType":"Carry-In","rampType":"Earth","numRamps":"1","numToilets":"1","dataUpdate":"12/15/2011","acres":"486.46","county":"Lake","geo":{"lat":47.58116451,"lng":-91.66299751}},{"DOWLKNUM":"69098700","lakeName":"Bird Lake","altName":"","rivName":"","launchName":"Bird Lake","launchType":"Carry-In","rampType":"Earth","numRamps":"1","numToilets":"1","dataUpdate":"12/15/2011","acres":"16.04","county":"St. Louis","geo":{"lat":47.4867284,"lng":-92.05756654}},{"DOWLKNUM":"00000000","lakeName":"St. Croix River","altName":"","rivName":"St. Croix","launchName":"St. Croix River,  #6","launchType":"Carry-In","rampType":"Earth","numRamps":"1","numToilets":"1","dataUpdate":"12/15/2011","acres":"36.93","county":"Pine","geo":{"lat":45.77391596,"lng":-92.78204121}},{"DOWLKNUM":"69069400","lakeName":"Unknown","altName":"","rivName":"","launchName":"Rainy Lake, Sha-sha Resort","launchType":"Trailer Launch","rampType":"Other","numRamps":"0","numToilets":"0","dataUpdate":"12/15/2011","acres":"44732.82","county":"Koochiching","geo":{"lat":48.5945212,"lng":-93.15622882}},{"DOWLKNUM":"38055200","lakeName":"Dragon Lake","altName":"Duck","rivName":"","launchName":"Dragon Lake","launchType":"Carry-In","rampType":"Earth","numRamps":"1","numToilets":"0","dataUpdate":"12/15/2011","acres":"79.15","county":"Lake","geo":{"lat":47.69910661,"lng":-91.5136339}},{"DOWLKNUM":"69091000","lakeName":"Shoepack Lake","altName":"Shoe Pac","rivName":"","launchName":"Shoepack Lake","launchType":"Trailer Launch","rampType":"Gravel","numRamps":"1","numToilets":"0","dataUpdate":"12/15/2011","acres":"41.77","county":"St. Louis","geo":{"lat":47.62011614,"lng":-92.93727524}},{"DOWLKNUM":"69079900","lakeName":"Clear Lake","altName":"","rivName":"","launchName":"Clear Lake","launchType":"Carry-In","rampType":"Earth","numRamps":"1","numToilets":"0","dataUpdate":"12/15/2011","acres":"138.55","county":"St. Louis","geo":{"lat":47.64582819,"lng":-92.75842593}},{"DOWLKNUM":"00000000","lakeName":"Little Isabella  River","altName":"","rivName":"","launchName":"Little Isabella River","launchType":"Carry-In","rampType":"Earth","numRamps":"1","numToilets":"0","dataUpdate":"12/15/2011","acres":"36.93","county":"Lake","geo":{"lat":47.77397136,"lng":-91.4883477}},{"DOWLKNUM":"38077000","lakeName":"Chow Lake","altName":"Chuck","rivName":"","launchName":"Chow Lake","launchType":"Carry-In","rampType":"Earth","numRamps":"1","numToilets":"0","dataUpdate":"12/15/2011","acres":"47.79","county":"Lake","geo":{"lat":47.7041509,"lng":-91.68650109}},{"DOWLKNUM":"00000000","lakeName":"St. Croix River","altName":"","rivName":"St. Croix","launchName":"St. Croix River, Mouth of Sand Creek","launchType":"Carry-In","rampType":"Earth","numRamps":"0","numToilets":"0","dataUpdate":"12/15/2011","acres":"36.93","county":"Pine","geo":{"lat":45.93315875,"lng":-92.6406956}},{"DOWLKNUM":"38044300","lakeName":"Bog Lake","altName":"","rivName":"","launchName":"Bog Lake","launchType":"Carry-In","rampType":"Earth","numRamps":"1","numToilets":"1","dataUpdate":"12/15/2011","acres":"258.52","county":"Lake","geo":{"lat":47.78121071,"lng":-91.38448184}},{"DOWLKNUM":"","lakeName":"Eagles Nest 3","altName":"","rivName":"","launchName":"Eagles Nest Lake (3)","launchType":"Carry-In","rampType":"Other","numRamps":"0","numToilets":"0","dataUpdate":"12/15/2011","acres":"0","county":"St. Louis","geo":{"lat":47.80466665,"lng":-92.11588096}},{"DOWLKNUM":"38008000","lakeName":"Kawishiwi","altName":"","rivName":"","launchName":"Kawishiwi","launchType":"Carry-In","rampType":"Unknown","numRamps":"0","numToilets":"0","dataUpdate":"1/27/2012","acres":"371.64","county":"Lake","geo":{"lat":47.83911833,"lng":-91.10230075}},{"DOWLKNUM":"69069400","lakeName":"Unknown","altName":"","rivName":"","launchName":"Rainy Lake, Birch Point Camp","launchType":"Trailer Launch","rampType":"Other","numRamps":"0","numToilets":"0","dataUpdate":"9/29/2011","acres":"44732.82","county":"Koochiching","geo":{"lat":48.6167597,"lng":-93.32087535}},{"DOWLKNUM":"58007300","lakeName":"Dago Lake","altName":"","rivName":"","launchName":"Dago Lake","launchType":"Trailer Launch","rampType":"Concrete","numRamps":"1","numToilets":"2","dataUpdate":"12/15/2011","acres":"117.81","county":"Pine","geo":{"lat":46.35408079,"lng":-92.79674541}},{"DOWLKNUM":"","lakeName":"Cass Lake","altName":"","rivName":"","launchName":"Cass Lake, Allens Bay (N)","launchType":"Carry-In","rampType":"Sand","numRamps":"1","numToilets":"0","dataUpdate":"12/15/2011","acres":"0","county":"Beltrami","geo":{"lat":47.43684429,"lng":-94.59938708}},{"DOWLKNUM":"04003000","lakeName":"Cass Lake","altName":"","rivName":"","launchName":"Cass Lake, Wanaki (SE)","launchType":"Trailer Launch","rampType":"Concrete","numRamps":"1","numToilets":"1","dataUpdate":"12/15/2011","acres":"15957.97","county":"Cass","geo":{"lat":47.39592114,"lng":-94.50031711}},{"DOWLKNUM":"04003000","lakeName":"Cass Lake","altName":"","rivName":"Mississippi","launchName":"Cass Lake (E)","launchType":"Trailer Launch","rampType":"Concrete","numRamps":"1","numToilets":"1","dataUpdate":"12/15/2011","acres":"15957.97","county":"Beltrami","geo":{"lat":47.44319996,"lng":-94.49764312}},{"DOWLKNUM":"","lakeName":"Mississippi River, Co Rd 12","altName":"","rivName":"","launchName":"Mississippi River, Co Rd 12","launchType":"Carry-In","rampType":"Concrete","numRamps":"1","numToilets":"0","dataUpdate":"12/15/2011","acres":"0","county":"Beltrami","geo":{"lat":47.48370332,"lng":-94.72833331}},{"DOWLKNUM":"","lakeName":"Minnesota River, Whispering Ridge AMA","altName":"","rivName":"","launchName":"Minnesota River, Whispering Ridge AMA","launchType":"Carry-In","rampType":"","numRamps":"0","numToilets":"0","dataUpdate":"12/15/2011","acres":"0","county":"Redwood","geo":{"lat":44.6463662,"lng":-95.21348057}},{"DOWLKNUM":"56024100","lakeName":"Annie Battle Lake","altName":"","rivName":"","launchName":"Annie Battle Lake","launchType":"Carry-In","rampType":"","numRamps":"0","numToilets":"1","dataUpdate":"5/9/2013","acres":"354.39","county":"Otter Tail","geo":{"lat":46.33196046,"lng":-95.66642972}},{"DOWLKNUM":"00000000","lakeName":"Leech Lake River","altName":"","rivName":"","launchName":"Leech Lake River","launchType":"Trailer Launch","rampType":"","numRamps":"1","numToilets":"0","dataUpdate":"5/9/2013","acres":"36.93","county":"Cass","geo":{"lat":47.24728833,"lng":-94.21846356}},{"DOWLKNUM":"00000000","lakeName":"Rainy River, Pat Roche Sr.","altName":"","rivName":"","launchName":"Rainy River, Pat Roche Sr.","launchType":"Trailer Launch","rampType":"Concrete","numRamps":"1","numToilets":"0","dataUpdate":"5/13/2013","acres":"36.93","county":"Koochiching","geo":{"lat":48.6044196,"lng":-93.37572592}},{"DOWLKNUM":"18011900","lakeName":"Rowe Mine Pit Lake","altName":"Roe","rivName":"","launchName":"Rowe Mine Pit Lake","launchType":"Trailer Launch","rampType":"Plank","numRamps":"1","numToilets":"0","dataUpdate":"5/13/2013","acres":"26.67","county":"Crow Wing","geo":{"lat":46.46702631,"lng":-94.05064175}},{"DOWLKNUM":"18052400","lakeName":"Snowshoe Lake","altName":"","rivName":"","launchName":"Snowshoe Lake","launchType":"Carry-In","rampType":"Earth","numRamps":"0","numToilets":"0","dataUpdate":"5/13/2013","acres":"6.58","county":"Crow Wing","geo":{"lat":46.46306395,"lng":-94.03949003}},{"DOWLKNUM":"48000200","lakeName":"Reddy Creek","altName":"","rivName":"","launchName":"Reddy Creek","launchType":"Carry-In","rampType":"Earth","numRamps":"0","numToilets":"1","dataUpdate":"5/13/2013","acres":"128223.89","county":"Aitkin","geo":{"lat":46.36588422,"lng":-93.58591796}},{"DOWLKNUM":"00000000","lakeName":"Walleye Road Landing","altName":"","rivName":"","launchName":"Walleye Road Landing","launchType":"Trailer Launch","rampType":"Concrete","numRamps":"1","numToilets":"0","dataUpdate":"5/13/2013","acres":"36.93","county":"Stearns","geo":{"lat":45.71673445,"lng":-94.22580652}},{"DOWLKNUM":"04019800","lakeName":"Puposky (north)","altName":"","rivName":"","launchName":"Puposky (north)","launchType":"Trailer Launch","rampType":"Concrete","numRamps":"0","numToilets":"0","dataUpdate":"5/13/2013","acres":"2177.2","county":"Beltrami","geo":{"lat":47.69760874,"lng":-94.95772873}},{"DOWLKNUM":"00000000","lakeName":"Wannigan Road","altName":"","rivName":"","launchName":"Wannigan Road","launchType":"Carry-In","rampType":"Earth","numRamps":"1","numToilets":"0","dataUpdate":"5/13/2013","acres":"36.93","county":"Becker","geo":{"lat":46.7847032,"lng":-95.69620236}},{"DOWLKNUM":"14010000","lakeName":"Silver Lake","altName":"","rivName":"","launchName":"Silver Lake","launchType":"Trailer Launch","rampType":"Concrete","numRamps":"1","numToilets":"0","dataUpdate":"5/13/2013","acres":"108.99","county":"Clay","geo":{"lat":46.83236326,"lng":-96.32637652}},{"DOWLKNUM":"03001000","lakeName":"Straight Lake","altName":"","rivName":"","launchName":"Straight Lake","launchType":"Trailer Launch","rampType":"Concrete","numRamps":"1","numToilets":"1","dataUpdate":"5/13/2013","acres":"471.43","county":"Becker","geo":{"lat":46.92191329,"lng":-95.25169193}},{"DOWLKNUM":"","lakeName":"West Crooked Lake","altName":"","rivName":"","launchName":"West Crooked Lake","launchType":"Trailer Launch","rampType":"Earth","numRamps":"1","numToilets":"0","dataUpdate":"5/13/2013","acres":"0","county":"Hubbard","geo":{"lat":47.03653563,"lng":-94.88569762}},{"DOWLKNUM":"56044900","lakeName":"Pleasant Lake","altName":"","rivName":"","launchName":"Pleasant Lake","launchType":"Carry-In","rampType":"Earth","numRamps":"1","numToilets":"0","dataUpdate":"5/13/2013","acres":"385.26","county":"Otter Tail","geo":{"lat":46.35723018,"lng":-95.87904723}},{"DOWLKNUM":"11032600","lakeName":"Shafer Lake","altName":"","rivName":"","launchName":"Shafer Lake","launchType":"Carry-In","rampType":"Earth","numRamps":"1","numToilets":"1","dataUpdate":"5/13/2013","acres":"47.16","county":"Cass","geo":{"lat":46.43779186,"lng":-94.42361779}},{"DOWLKNUM":"43008500","lakeName":"South Fork of Crow River, Roberts Park","altName":"Campbell","rivName":"","launchName":"South Fork of Crow River, Roberts Park","launchType":"Trailer Launch","rampType":"Concrete","numRamps":"1","numToilets":"0","dataUpdate":"5/13/2013","acres":"645.91","county":"McLeod","geo":{"lat":44.88983717,"lng":-94.40165295}},{"DOWLKNUM":"22002200","lakeName":"South Walnut","altName":"","rivName":"","launchName":"South Walnut","launchType":"Trailer Launch","rampType":"Concrete","numRamps":"1","numToilets":"0","dataUpdate":"5/13/2013","acres":"388.33","county":"Faribault","geo":{"lat":43.66198037,"lng":-93.78787331}},{"DOWLKNUM":"00000000","lakeName":"Veteran's Bridge","altName":"","rivName":"","launchName":"Veteran's Bridge","launchType":"Trailer Launch","rampType":"Concrete","numRamps":"1","numToilets":"0","dataUpdate":"5/13/2013","acres":"36.93","county":"Nicollet","geo":{"lat":44.1730734,"lng":-94.00292076}},{"DOWLKNUM":"04013400","lakeName":"Three Island Lake","altName":"","rivName":"","launchName":"Three Island Lake","launchType":"Trailer Launch","rampType":"Earth","numRamps":"1","numToilets":"0","dataUpdate":"5/13/2013","acres":"722.09","county":"Beltrami","geo":{"lat":47.62712362,"lng":-94.78254618}},{"DOWLKNUM":"04015900","lakeName":"Turtle Lake","altName":"","rivName":"","launchName":"Turtle Lake","launchType":"Trailer Launch","rampType":"Concrete","numRamps":"1","numToilets":"1","dataUpdate":"5/13/2013","acres":"1606.26","county":"Beltrami","geo":{"lat":47.61305827,"lng":-94.88274608}},{"DOWLKNUM":"","lakeName":"Rum River, Becklin Homestead County Park/WMA","altName":"","rivName":"","launchName":"Rum River, Becklin Homestead County Park/WMA","launchType":"Carry-In","rampType":"Gravel","numRamps":"1","numToilets":"2","dataUpdate":"5/13/2013","acres":"0","county":"Isanti","geo":{"lat":45.59961913,"lng":-93.27772152}},{"DOWLKNUM":"38002800","lakeName":"Thunderbird","altName":"","rivName":"","launchName":"Thunderbird","launchType":"Carry-In","rampType":"Earth","numRamps":"0","numToilets":"0","dataUpdate":"5/13/2013","acres":"42.09","county":"Lake","geo":{"lat":47.58771911,"lng":-91.07931671}},{"DOWLKNUM":"16063300","lakeName":"Saganaga","altName":"","rivName":"","launchName":"Saganaga","launchType":"Trailer Launch","rampType":"Gravel","numRamps":"0","numToilets":"0","dataUpdate":"5/13/2013","acres":"7150.27","county":"Cook","geo":{"lat":48.16471901,"lng":-90.88308772}},{"DOWLKNUM":"16008000","lakeName":"Shoe","altName":"","rivName":"","launchName":"Shoe","launchType":"Carry-In","rampType":"Earth","numRamps":"0","numToilets":"0","dataUpdate":"5/13/2013","acres":"25.78","county":"Cook","geo":{"lat":48.00532706,"lng":-90.24350593}},{"DOWLKNUM":"16038400","lakeName":"Tait Lake","altName":"","rivName":"","launchName":"Tait Lake","launchType":"Trailer Launch","rampType":"Plank","numRamps":"1","numToilets":"1","dataUpdate":"5/13/2013","acres":"356.77","county":"Cook","geo":{"lat":47.81989248,"lng":-90.71023656}},{"DOWLKNUM":"16062900","lakeName":"Sea Gull Lake","altName":"","rivName":"","launchName":"Sea Gull Lake (E)","launchType":"Trailer Launch","rampType":"Earth","numRamps":"1","numToilets":"0","dataUpdate":"5/13/2013","acres":"3957.65","county":"Cook","geo":{"lat":48.14709484,"lng":-90.86972016}},{"DOWLKNUM":"16062900","lakeName":"Sea Gull Lake","altName":"","rivName":"","launchName":"Sea Gull Lake (N)","launchType":"Trailer Launch","rampType":"Other","numRamps":"1","numToilets":"1","dataUpdate":"5/13/2013","acres":"3957.65","county":"Cook","geo":{"lat":48.15722723,"lng":-90.89375635}},{"DOWLKNUM":"16022800","lakeName":"West Bearskin Lake","altName":"West Bearskin","rivName":"","launchName":"West Bearskin Lake","launchType":"Carry-In","rampType":"Concrete","numRamps":"0","numToilets":"0","dataUpdate":"5/13/2013","acres":"493","county":"Cook","geo":{"lat":48.06258231,"lng":-90.4442312}},{"DOWLKNUM":"16022800","lakeName":"West Bearskin Lake","altName":"West Bearskin","rivName":"","launchName":"West Bearskin Lake","launchType":"Trailer Launch","rampType":"Concrete","numRamps":"1","numToilets":"0","dataUpdate":"5/13/2013","acres":"493","county":"Cook","geo":{"lat":48.0645729,"lng":-90.39832936}},{"DOWLKNUM":"16060600","lakeName":"Round Lake","altName":"Round Bear","rivName":"","launchName":"Round Lake","launchType":"Carry-In","rampType":"Portage","numRamps":"1","numToilets":"1","dataUpdate":"5/13/2013","acres":"154.48","county":"Cook","geo":{"lat":48.07446925,"lng":-90.83651063}},{"DOWLKNUM":"16019600","lakeName":"Wampus Lake","altName":"","rivName":"","launchName":"Wampus Lake","launchType":"Carry-In","rampType":"Earth","numRamps":"1","numToilets":"0","dataUpdate":"5/13/2013","acres":"30.45","county":"Cook","geo":{"lat":48.05610379,"lng":-90.41105891}},{"DOWLKNUM":"16023900","lakeName":"Popular Lake","altName":"","rivName":"","launchName":"Popular Lake","launchType":"Trailer Launch","rampType":"Concrete","numRamps":"0","numToilets":"0","dataUpdate":"5/13/2013","acres":"763.99","county":"Cook","geo":{"lat":48.05547627,"lng":-90.54426156}},{"DOWLKNUM":"00000000","lakeName":"Swamp  River","altName":"","rivName":"","launchName":"Swamp River","launchType":"Trailer Launch","rampType":"Gravel","numRamps":"1","numToilets":"1","dataUpdate":"5/13/2013","acres":"36.93","county":"Cook","geo":{"lat":47.98698974,"lng":-89.93538183}},{"DOWLKNUM":"16017400","lakeName":"Ram Lake","altName":"","rivName":"","launchName":"Ram Lake","launchType":"Carry-In","rampType":"Portage","numRamps":"1","numToilets":"0","dataUpdate":"5/13/2013","acres":"68.3","county":"Cook","geo":{"lat":47.95649947,"lng":-90.44755081}},{"DOWLKNUM":"16001900","lakeName":"Tom Lake","altName":"Toms","rivName":"","launchName":"Tom Lake","launchType":"Trailer Launch","rampType":"Plank","numRamps":"1","numToilets":"0","dataUpdate":"5/13/2013","acres":"404.48","county":"Cook","geo":{"lat":47.93398593,"lng":-90.06875418}},{"DOWLKNUM":"16040500","lakeName":"Star Lake","altName":"","rivName":"","launchName":"Star Lake","launchType":"Carry-In","rampType":"Plank","numRamps":"1","numToilets":"0","dataUpdate":"5/13/2013","acres":"107.11","county":"Cook","geo":{"lat":47.90232304,"lng":-90.6569038}},{"DOWLKNUM":"16015600","lakeName":"Two Island Lake","altName":"","rivName":"","launchName":"Two Island Lake","launchType":"Trailer Launch","rampType":"Concrete","numRamps":"1","numToilets":"1","dataUpdate":"5/13/2013","acres":"753.81","county":"Cook","geo":{"lat":47.88000498,"lng":-90.44549365}},{"DOWLKNUM":"16004900","lakeName":"Trout Lake","altName":"","rivName":"","launchName":"Trout Lake","launchType":"Carry-In","rampType":"Earth","numRamps":"1","numToilets":"0","dataUpdate":"5/13/2013","acres":"260.01","county":"Cook","geo":{"lat":47.87397611,"lng":-90.18316488}},{"DOWLKNUM":"16063300","lakeName":"Saganaga Lake","altName":"","rivName":"","launchName":"Saganaga Lake","launchType":"Trailer Launch","rampType":"Gravel","numRamps":"1","numToilets":"1","dataUpdate":"5/13/2013","acres":"7150.27","county":"Cook","geo":{"lat":48.17140892,"lng":-90.88648353}},{"DOWLKNUM":"01008500","lakeName":"Twenty Lake","altName":"","rivName":"","launchName":"Twenty Lake","launchType":"Carry-In","rampType":"Earth","numRamps":"1","numToilets":"0","dataUpdate":"5/13/2013","acres":"123.22","county":"Aitkin","geo":{"lat":46.36795349,"lng":-93.53315688}},{"DOWLKNUM":"","lakeName":"Snake River, Wilderness West-Blackbird","altName":"","rivName":"","launchName":"Snake River, Wilderness West-Blackbird","launchType":"Carry-In","rampType":"Earth","numRamps":"0","numToilets":"0","dataUpdate":"5/13/2013","acres":"0","county":"Pine","geo":{"lat":45.85010327,"lng":-92.89801117}},{"DOWLKNUM":"","lakeName":"Snake River, Wilderness East","altName":"","rivName":"","launchName":"Snake River, Wilderness East","launchType":"Carry-In","rampType":"Earth","numRamps":"0","numToilets":"0","dataUpdate":"5/13/2013","acres":"0","county":"Pine","geo":{"lat":45.84133496,"lng":-92.86265539}},{"DOWLKNUM":"00000000","lakeName":"St. Croix River","altName":"","rivName":"St. Croix","launchName":"St. Croix River, Head of Rapids","launchType":"Carry-In","rampType":"Earth","numRamps":"0","numToilets":"0","dataUpdate":"5/13/2013","acres":"36.93","county":"Pine","geo":{"lat":45.90357994,"lng":-92.69594591}},{"DOWLKNUM":"00000000","lakeName":"St. Croix River","altName":"","rivName":"St. Croix","launchName":"St. Croix River, Snake River","launchType":"Trailer Launch","rampType":"Gravel","numRamps":"1","numToilets":"1","dataUpdate":"5/13/2013","acres":"36.93","county":"Pine","geo":{"lat":45.82308344,"lng":-92.76456754}},{"DOWLKNUM":"69012900","lakeName":"Spring Lake","altName":"","rivName":"","launchName":"Spring Lake","launchType":"Trailer Launch","rampType":"Concrete","numRamps":"1","numToilets":"0","dataUpdate":"5/13/2013","acres":"98.36","county":"St. Louis","geo":{"lat":47.0685582,"lng":-91.99710405}},{"DOWLKNUM":"16036900","lakeName":"White Pine Lake","altName":"","rivName":"","launchName":"White Pine Lake","launchType":"Trailer Launch","rampType":"Concrete","numRamps":"1","numToilets":"1","dataUpdate":"5/13/2013","acres":"346.13","county":"Cook","geo":{"lat":47.74012005,"lng":-90.75269268}},{"DOWLKNUM":"16064500","lakeName":"Toohey Lake","altName":"Twohey","rivName":"","launchName":"Toohey Lake","launchType":"Trailer Launch","rampType":"Concrete","numRamps":"1","numToilets":"0","dataUpdate":"5/13/2013","acres":"368.93","county":"Cook","geo":{"lat":47.71300333,"lng":-90.95342921}},{"DOWLKNUM":"16018600","lakeName":"West Twin Lake","altName":"","rivName":"","launchName":"West Twin Lake","launchType":"Trailer Launch","rampType":"Concrete","numRamps":"1","numToilets":"1","dataUpdate":"5/13/2013","acres":"133.55","county":"Cook","geo":{"lat":47.90276992,"lng":-90.39854024}},{"DOWLKNUM":"38006600","lakeName":"T Lake","altName":"Tee","rivName":"","launchName":"T Lake","launchType":"Carry-In","rampType":"Earth","numRamps":"1","numToilets":"0","dataUpdate":"5/13/2013","acres":"295","county":"Lake","geo":{"lat":47.73657831,"lng":-91.10241533}},{"DOWLKNUM":"38021900","lakeName":"Silver Island Lake","altName":"","rivName":"","launchName":"Silver Island Lake","launchType":"Trailer Launch","rampType":"Concrete","numRamps":"1","numToilets":"1","dataUpdate":"5/13/2013","acres":"1238.85","county":"Lake","geo":{"lat":47.7272538,"lng":-91.14852981}},{"DOWLKNUM":"38029200","lakeName":"Section Lake","altName":"","rivName":"","launchName":"Section 29 Lake","launchType":"Trailer Launch","rampType":"Earth","numRamps":"1","numToilets":"0","dataUpdate":"5/13/2013","acres":"97.06","county":"Lake","geo":{"lat":47.74136838,"lng":-91.24187873}},{"DOWLKNUM":"38006800","lakeName":"Windy Lake","altName":"","rivName":"","launchName":"Windy Lake","launchType":"Trailer Launch","rampType":"Gravel","numRamps":"1","numToilets":"1","dataUpdate":"5/13/2013","acres":"455.99","county":"Lake","geo":{"lat":47.74334122,"lng":-91.0869828}},{"DOWLKNUM":"00000000","lakeName":"Stony  River","altName":"","rivName":"","launchName":"Stony River","launchType":"Carry-In","rampType":"Earth","numRamps":"1","numToilets":"0","dataUpdate":"5/13/2013","acres":"36.93","county":"Lake","geo":{"lat":47.60624672,"lng":-91.47502676}},{"DOWLKNUM":"00000000","lakeName":"Whiteface River","altName":"","rivName":"","launchName":"Whiteface Reservoir (S)","launchType":"Trailer Launch","rampType":"Concrete","numRamps":"1","numToilets":"0","dataUpdate":"5/13/2013","acres":"36.93","county":"St. Louis","geo":{"lat":47.28224923,"lng":-92.19085128}},{"DOWLKNUM":"69055000","lakeName":"Section 14 Lake","altName":"","rivName":"","launchName":"Section 14 Lake","launchType":"Trailer Launch","rampType":"Gravel","numRamps":"1","numToilets":"0","dataUpdate":"5/13/2013","acres":"136.17","county":"St. Louis","geo":{"lat":47.32385405,"lng":-92.33123731}},{"DOWLKNUM":"69052900","lakeName":"Strand Lake","altName":"","rivName":"","launchName":"Strand Lake","launchType":"Trailer Launch","rampType":"Earth","numRamps":"1","numToilets":"0","dataUpdate":"5/13/2013","acres":"330.21","county":"St. Louis","geo":{"lat":47.14658024,"lng":-92.41018579}},{"DOWLKNUM":"38039500","lakeName":"Sylvania Lake","altName":"Long","rivName":"","launchName":"Sylvania Lake","launchType":"Carry-In","rampType":"Earth","numRamps":"1","numToilets":"0","dataUpdate":"5/13/2013","acres":"77.06","county":"Lake","geo":{"lat":47.7202567,"lng":-91.27532387}},{"DOWLKNUM":"38006000","lakeName":"Whitefish Lake","altName":"","rivName":"","launchName":"Whitefish Lake","launchType":"Carry-In","rampType":"Earth","numRamps":"1","numToilets":"0","dataUpdate":"5/13/2013","acres":"345.49","county":"Lake","geo":{"lat":47.71841166,"lng":-91.0448722}},{"DOWLKNUM":"38004200","lakeName":"Wye Lake","altName":"Spring","rivName":"","launchName":"Wye Lake","launchType":"Carry-In","rampType":"Earth","numRamps":"1","numToilets":"0","dataUpdate":"5/13/2013","acres":"51.69","county":"Lake","geo":{"lat":47.70217732,"lng":-91.12548427}},{"DOWLKNUM":"38004700","lakeName":"Wilson Lake","altName":"","rivName":"","launchName":"Wilson Lake","launchType":"Trailer Launch","rampType":"Concrete","numRamps":"0","numToilets":"0","dataUpdate":"5/13/2013","acres":"650.21","county":"Lake","geo":{"lat":47.66045484,"lng":-91.06120852}},{"DOWLKNUM":"38043100","lakeName":"Trappers Lake","altName":"","rivName":"","launchName":"Trappers Lake","launchType":"Carry-In","rampType":"Earth","numRamps":"1","numToilets":"0","dataUpdate":"5/13/2013","acres":"19.18","county":"Lake","geo":{"lat":47.6453719,"lng":-91.32893555}},{"DOWLKNUM":"31000300","lakeName":"South Sturgeon Lake","altName":"","rivName":"","launchName":"South Sturgeon Lake","launchType":"Trailer Launch","rampType":"Concrete","numRamps":"1","numToilets":"0","dataUpdate":"5/13/2013","acres":"202.67","county":"Itasca","geo":{"lat":47.63316676,"lng":-93.06996499}},{"DOWLKNUM":"","lakeName":"Wolf Lake","altName":"","rivName":"","launchName":"Wolf Lake","launchType":"Trailer Launch","rampType":"Concrete","numRamps":"1","numToilets":"0","dataUpdate":"5/13/2013","acres":"0","county":"St. Louis","geo":{"lat":47.87802616,"lng":-92.02379647}},{"DOWLKNUM":"","lakeName":"Winchester Lake","altName":"","rivName":"","launchName":"Winchester Lake","launchType":"Carry-In","rampType":"Other","numRamps":"0","numToilets":"0","dataUpdate":"5/13/2013","acres":"0","county":"St. Louis","geo":{"lat":48.03661647,"lng":-92.53496506}},{"DOWLKNUM":"","lakeName":"St. Mary's Lake","altName":"","rivName":"","launchName":"St. Mary's Lake","launchType":"Carry-In","rampType":"Gravel","numRamps":"1","numToilets":"0","dataUpdate":"5/13/2013","acres":"0","county":"St. Louis","geo":{"lat":47.43703771,"lng":-92.50685913}},{"DOWLKNUM":"","lakeName":"St. James Mine Pit","altName":"","rivName":"","launchName":"St. James Mine Pit","launchType":"Trailer Launch","rampType":"Concrete","numRamps":"1","numToilets":"0","dataUpdate":"5/13/2013","acres":"0","county":"St. Louis","geo":{"lat":47.53424395,"lng":-92.23023603}},{"DOWLKNUM":"","lakeName":"St. Louis River","altName":"","rivName":"","launchName":"St. Louis River, Hwy 110","launchType":"Carry-In","rampType":"Other","numRamps":"0","numToilets":"0","dataUpdate":"5/13/2013","acres":"0","county":"St. Louis","geo":{"lat":47.48098943,"lng":-92.03998634}},{"DOWLKNUM":"","lakeName":"Side Lake","altName":"","rivName":"","launchName":"Side Lake","launchType":"Trailer Launch","rampType":"Concrete","numRamps":"1","numToilets":"0","dataUpdate":"5/13/2013","acres":"0","county":"St. Louis","geo":{"lat":47.67192661,"lng":-93.02709559}},{"DOWLKNUM":"","lakeName":"Sabin Lake","altName":"","rivName":"","launchName":"Sabin Lake (N)","launchType":"Trailer Launch","rampType":"Concrete","numRamps":"1","numToilets":"0","dataUpdate":"5/13/2013","acres":"0","county":"St. Louis","geo":{"lat":47.59011498,"lng":-92.30352979}},{"DOWLKNUM":"","lakeName":"Rainy Lake","altName":"","rivName":"","launchName":"Rainy Lake, Black Bay Narrows","launchType":"Trailer Launch","rampType":"Concrete","numRamps":"1","numToilets":"2","dataUpdate":"5/13/2013","acres":"0","county":"Koochiching","geo":{"lat":48.58360649,"lng":-93.16125531}},{"DOWLKNUM":"","lakeName":"Rainy Lake","altName":"","rivName":"","launchName":"Rainy Lake, Dove Island","launchType":"Trailer Launch","rampType":"Concrete","numRamps":"1","numToilets":"1","dataUpdate":"5/13/2013","acres":"0","county":"Koochiching","geo":{"lat":48.5967369,"lng":-93.16873699}},{"DOWLKNUM":"","lakeName":"Wynne Lake","altName":"","rivName":"","launchName":"Wynne Lake (S)","launchType":"Trailer Launch","rampType":"Concrete","numRamps":"1","numToilets":"0","dataUpdate":"5/13/2013","acres":"0","county":"St. Louis","geo":{"lat":47.57342228,"lng":-92.29894832}},{"DOWLKNUM":"69037600","lakeName":"Whitewater Lake","altName":"","rivName":"","launchName":"Whitewater Lake","launchType":"Trailer Launch","rampType":"Concrete","numRamps":"2","numToilets":"1","dataUpdate":"5/13/2013","acres":"1212.22","county":"St. Louis","geo":{"lat":47.5050138,"lng":-92.17180178}},{"DOWLKNUM":"69000400","lakeName":"White Iron Lake","altName":"","rivName":"","launchName":"White Iron Lake","launchType":"Trailer Launch","rampType":"Concrete","numRamps":"1","numToilets":"0","dataUpdate":"5/13/2013","acres":"3241.42","county":"St. Louis","geo":{"lat":47.8616622,"lng":-91.82078323}},{"DOWLKNUM":"69005900","lakeName":"Whisper Lake","altName":"Perch","rivName":"","launchName":"Whisper Lake","launchType":"Carry-In","rampType":"Other","numRamps":"0","numToilets":"0","dataUpdate":"5/13/2013","acres":"46.05","county":"St. Louis","geo":{"lat":47.75317148,"lng":-91.92167867}},{"DOWLKNUM":"00000000","lakeName":"W Two River","altName":"","rivName":"","launchName":"West Two Rivers Reservoir","launchType":"Trailer Launch","rampType":"Concrete","numRamps":"1","numToilets":"0","dataUpdate":"5/13/2013","acres":"36.93","county":"St. Louis","geo":{"lat":47.47890134,"lng":-92.66339925}},{"DOWLKNUM":"69016300","lakeName":"Twin","altName":"","rivName":"","launchName":"Twin Lake","launchType":"Trailer Launch","rampType":"Concrete","numRamps":"1","numToilets":"0","dataUpdate":"5/13/2013","acres":"224.27","county":"St. Louis","geo":{"lat":47.85357566,"lng":-91.97872147}},{"DOWLKNUM":"38072400","lakeName":"Tofte Lake","altName":"","rivName":"","launchName":"Tofte Lake","launchType":"Trailer Launch","rampType":"Concrete","numRamps":"1","numToilets":"1","dataUpdate":"5/13/2013","acres":"133.78","county":"Lake","geo":{"lat":47.96223134,"lng":-91.57041584}},{"DOWLKNUM":"","lakeName":"Sturgeon Lake","altName":"","rivName":"","launchName":"Sturgeon Lake","launchType":"Trailer Launch","rampType":"Concrete","numRamps":"1","numToilets":"0","dataUpdate":"5/13/2013","acres":"0","county":"St. Louis","geo":{"lat":47.66988964,"lng":-93.03444585}},{"DOWLKNUM":"69004600","lakeName":"Stone Lake","altName":"","rivName":"","launchName":"Stone Lake","launchType":"Carry-In","rampType":"Other","numRamps":"0","numToilets":"0","dataUpdate":"5/13/2013","acres":"237.37","county":"St. Louis","geo":{"lat":47.50280827,"lng":-91.88971009}},{"DOWLKNUM":"00000000","lakeName":"St. Louis River","altName":"","rivName":"St. Louis","launchName":"St. Louis River, Co Rd 346","launchType":"Trailer Launch","rampType":"Gravel","numRamps":"1","numToilets":"1","dataUpdate":"5/13/2013","acres":"36.93","county":"St. Louis","geo":{"lat":47.44180658,"lng":-92.14330182}},{"DOWLKNUM":"00000000","lakeName":"St. Louis River","altName":"","rivName":"St. Louis","launchName":"St. Louis River, Hush","launchType":"Carry-In","rampType":"Earth","numRamps":"1","numToilets":"0","dataUpdate":"5/13/2013","acres":"36.93","county":"St. Louis","geo":{"lat":47.46537751,"lng":-92.06775063}},{"DOWLKNUM":"00000000","lakeName":"St. Louis River","altName":"","rivName":"St. Louis","launchName":"St. Louis River, Co Rd 315","launchType":"Carry-In","rampType":"Other","numRamps":"0","numToilets":"0","dataUpdate":"5/13/2013","acres":"36.93","county":"St. Louis","geo":{"lat":47.40092227,"lng":-92.37759104}},{"DOWLKNUM":"69042000","lakeName":"South Twin Lake","altName":"","rivName":"","launchName":"South Twin Lake","launchType":"Trailer Launch","rampType":"Earth","numRamps":"1","numToilets":"0","dataUpdate":"5/13/2013","acres":"118.06","county":"St. Louis","geo":{"lat":47.44362421,"lng":-92.24287553}},{"DOWLKNUM":"31005700","lakeName":"Sherry Lake","altName":"","rivName":"","launchName":"Sherry Lake","launchType":"Carry-In","rampType":"Earth","numRamps":"1","numToilets":"0","dataUpdate":"5/13/2013","acres":"133.37","county":"Itasca","geo":{"lat":47.63689798,"lng":-93.16788589}},{"DOWLKNUM":"69006900","lakeName":"Shagawa Lake","altName":"Long","rivName":"","launchName":"Shagawa Lake (SE)","launchType":"Trailer Launch","rampType":"Gravel","numRamps":"1","numToilets":"0","dataUpdate":"5/13/2013","acres":"2344.46","county":"St. Louis","geo":{"lat":47.9175401,"lng":-91.83794291}},{"DOWLKNUM":"69006900","lakeName":"Shagawa Lake","altName":"Long","rivName":"","launchName":"Shagawa Lake (S)","launchType":"Trailer Launch","rampType":"Sand","numRamps":"1","numToilets":"0","dataUpdate":"5/13/2013","acres":"2344.46","county":"St. Louis","geo":{"lat":47.90457257,"lng":-91.88069027}},{"DOWLKNUM":"69006900","lakeName":"Shagawa Lake","altName":"Long","rivName":"","launchName":"Shagawa Lake (NW)","launchType":"Trailer Launch","rampType":"Concrete","numRamps":"1","numToilets":"0","dataUpdate":"5/13/2013","acres":"2344.46","county":"St. Louis","geo":{"lat":47.92471578,"lng":-91.91272212}},{"DOWLKNUM":"69021700","lakeName":"West Robinson","altName":"","rivName":"","launchName":"West Robinson","launchType":"Trailer Launch","rampType":"Earth","numRamps":"0","numToilets":"0","dataUpdate":"5/13/2013","acres":"120.62","county":"St. Louis","geo":{"lat":47.85877303,"lng":-92.04273479}},{"DOWLKNUM":"69016600","lakeName":"Purvis Lake","altName":"Sparrow (PWI)","rivName":"","launchName":"Purvis Lake","launchType":"Carry-In","rampType":"Earth","numRamps":"0","numToilets":"0","dataUpdate":"5/13/2013","acres":"53.33","county":"St. Louis","geo":{"lat":47.82639384,"lng":-92.00666613}},{"DOWLKNUM":"","lakeName":"Rice River","altName":"","rivName":"","launchName":"Rice River, Hwy 53 (S)","launchType":"Carry-In","rampType":"Other","numRamps":"0","numToilets":"0","dataUpdate":"5/13/2013","acres":"0","county":"St. Louis","geo":{"lat":47.77117491,"lng":-92.65509199}},{"DOWLKNUM":"00000000","lakeName":"S Fork Kawishiwi River","altName":"","rivName":"","launchName":"South Fork Kawishiwi River (S)","launchType":"Carry-In","rampType":"Concrete","numRamps":"1","numToilets":"0","dataUpdate":"5/13/2013","acres":"36.93","county":"Lake","geo":{"lat":47.81655628,"lng":-91.73345675}},{"DOWLKNUM":"00000000","lakeName":"Rainy River","altName":"","rivName":"Rainy","launchName":"Rainy River, Kuttes","launchType":"Trailer Launch","rampType":"Other","numRamps":"1","numToilets":"1","dataUpdate":"5/13/2013","acres":"36.93","county":"Koochiching","geo":{"lat":48.52686484,"lng":-93.57021467}},{"DOWLKNUM":"69069400","lakeName":"Rainy Lake","altName":"","rivName":"","launchName":"Rainy Lake, Ranier","launchType":"Trailer Launch","rampType":"Concrete","numRamps":"1","numToilets":"0","dataUpdate":"5/13/2013","acres":"44732.82","county":"Koochiching","geo":{"lat":48.61599479,"lng":-93.34812197}},{"DOWLKNUM":"72003000","lakeName":"Severance Lake","altName":"","rivName":"","launchName":"Severance Lake","launchType":"Carry-In","rampType":"Other","numRamps":"0","numToilets":"0","dataUpdate":"5/13/2013","acres":"266.97","county":"Sibley","geo":{"lat":44.67579669,"lng":-94.13238647}},{"DOWLKNUM":"","lakeName":"Redwood River","altName":"","rivName":"","launchName":"Redwood River, Wabasso","launchType":"Trailer Launch","rampType":"Plank","numRamps":"1","numToilets":"0","dataUpdate":"5/13/2013","acres":"0","county":"Redwood","geo":{"lat":44.50787495,"lng":-95.2297994}},{"DOWLKNUM":"","lakeName":"Redwood River","altName":"","rivName":"","launchName":"Redwood River, Vesta","launchType":"Trailer Launch","rampType":"Plank","numRamps":"1","numToilets":"0","dataUpdate":"5/13/2013","acres":"0","county":"Redwood","geo":{"lat":44.50029465,"lng":-95.42798056}},{"DOWLKNUM":"51004600","lakeName":"Shetek Lake","altName":"","rivName":"","launchName":"Shetek Lake (W)","launchType":"Trailer Launch","rampType":"Plank","numRamps":"2","numToilets":"1","dataUpdate":"5/13/2013","acres":"3370.97","county":"Murray","geo":{"lat":44.10886036,"lng":-95.71339457}},{"DOWLKNUM":"51004600","lakeName":"Shetek Lake","altName":"","rivName":"","launchName":"Shetek Lake,  Inlet","launchType":"Trailer Launch","rampType":"Plank","numRamps":"1","numToilets":"0","dataUpdate":"5/13/2013","acres":"3370.97","county":"Murray","geo":{"lat":44.16766118,"lng":-95.72977472}},{"DOWLKNUM":"41008900","lakeName":"Shoakatan Lake","altName":"Shoakotan","rivName":"","launchName":"Shoakatan Lake (NW)","launchType":"Trailer Launch","rampType":"Plank","numRamps":"1","numToilets":"1","dataUpdate":"5/13/2013","acres":"995.77","county":"Lincoln","geo":{"lat":44.40968235,"lng":-96.36368209}},{"DOWLKNUM":"83004300","lakeName":"St James Lake","altName":"","rivName":"","launchName":"St. James Lake (SE)","launchType":"Trailer Launch","rampType":"Concrete","numRamps":"1","numToilets":"1","dataUpdate":"5/13/2013","acres":"203.43","county":"Watonwan","geo":{"lat":43.97469564,"lng":-94.64041731}},{"DOWLKNUM":"83005100","lakeName":"Sulem Lake","altName":"","rivName":"","launchName":"Sulem Lake","launchType":"Carry-In","rampType":"Earth","numRamps":"0","numToilets":"0","dataUpdate":"5/13/2013","acres":"179.32","county":"Watonwan","geo":{"lat":43.92638518,"lng":-94.83738587}},{"DOWLKNUM":"83006000","lakeName":"Wood Lake","altName":"","rivName":"","launchName":"Wood Lake","launchType":"Trailer Launch","rampType":"Concrete","numRamps":"1","numToilets":"0","dataUpdate":"5/13/2013","acres":"559.34","county":"Watonwan","geo":{"lat":44.09377273,"lng":-94.75516384}},{"DOWLKNUM":"00000000","lakeName":"Watowan River","altName":"","rivName":"Watonwan","launchName":"Watonwan River, Medelia","launchType":"Carry-In","rampType":"Concrete","numRamps":"1","numToilets":"0","dataUpdate":"5/13/2013","acres":"36.93","county":"Watonwan","geo":{"lat":44.03935165,"lng":-94.42245679}},{"DOWLKNUM":"53002100","lakeName":"W Graham Lake","altName":"","rivName":"","launchName":"West Graham Lake (E)","launchType":"Trailer Launch","rampType":"Concrete","numRamps":"0","numToilets":"0","dataUpdate":"5/13/2013","acres":"519.28","county":"Nobles","geo":{"lat":43.80853449,"lng":-95.50340996}},{"DOWLKNUM":"53002100","lakeName":"W Graham Lake","altName":"","rivName":"","launchName":"West Graham Lake (N)","launchType":"Trailer Launch","rampType":"Plank","numRamps":"1","numToilets":"0","dataUpdate":"5/13/2013","acres":"519.28","county":"Nobles","geo":{"lat":43.80811575,"lng":-95.5119217}},{"DOWLKNUM":"51006300","lakeName":"Sarah Lake","altName":"","rivName":"","launchName":"Sarah Lake (W)","launchType":"Trailer Launch","rampType":"Concrete","numRamps":"1","numToilets":"0","dataUpdate":"5/13/2013","acres":"1193.51","county":"Murray","geo":{"lat":44.15321981,"lng":-95.7813789}},{"DOWLKNUM":"51004600","lakeName":"Shetek Lake","altName":"","rivName":"Des Moines","launchName":"Shetek Lake (NW)","launchType":"Carry-In","rampType":"Earth","numRamps":"0","numToilets":"0","dataUpdate":"5/13/2013","acres":"3370.97","county":"Murray","geo":{"lat":44.17417968,"lng":-95.74260364}},{"DOWLKNUM":"51006300","lakeName":"Sarah Lake","altName":"","rivName":"","launchName":"Sarah Lake (E)","launchType":"Trailer Launch","rampType":"Plank","numRamps":"1","numToilets":"0","dataUpdate":"5/13/2013","acres":"1193.51","county":"Murray","geo":{"lat":44.15265935,"lng":-95.7466148}},{"DOWLKNUM":"51004600","lakeName":"Shetek Lake","altName":"","rivName":"","launchName":"Shetek Lake (SW)","launchType":"Trailer Launch","rampType":"Plank","numRamps":"2","numToilets":"1","dataUpdate":"5/13/2013","acres":"3370.97","county":"Murray","geo":{"lat":44.09011843,"lng":-95.72368461}},{"DOWLKNUM":"46002500","lakeName":"Sisseton Lake","altName":"","rivName":"","launchName":"Sisseton Lake","launchType":"Trailer Launch","rampType":"Concrete","numRamps":"1","numToilets":"0","dataUpdate":"5/13/2013","acres":"138.2","county":"Martin","geo":{"lat":43.65033171,"lng":-94.46384046}},{"DOWLKNUM":"46010300","lakeName":"Temperance Lake","altName":"","rivName":"","launchName":"Temperance Lake","launchType":"Trailer Launch","rampType":"Concrete","numRamps":"1","numToilets":"0","dataUpdate":"5/13/2013","acres":"166.04","county":"Martin","geo":{"lat":43.66052236,"lng":-94.71738751}},{"DOWLKNUM":"46002000","lakeName":"S Silver Lake","altName":"","rivName":"","launchName":"South Silver Lake","launchType":"Trailer Launch","rampType":"Plank","numRamps":"1","numToilets":"0","dataUpdate":"5/13/2013","acres":"252.37","county":"Martin","geo":{"lat":43.51273705,"lng":-94.46672369}},{"DOWLKNUM":"","lakeName":"Wilmert Lake","altName":"","rivName":"","launchName":"Wilmert Lake","launchType":"Trailer Launch","rampType":"Concrete","numRamps":"1","numToilets":"0","dataUpdate":"5/13/2013","acres":"0","county":"Martin","geo":{"lat":43.56543378,"lng":-94.47778041}},{"DOWLKNUM":"42004700","lakeName":"Yankton Lake","altName":"","rivName":"","launchName":"Yankton Lake","launchType":"Trailer Launch","rampType":"Plank","numRamps":"2","numToilets":"1","dataUpdate":"5/13/2013","acres":"401.32","county":"Lyon","geo":{"lat":44.23940716,"lng":-95.86690672}},{"DOWLKNUM":"42007800","lakeName":"Wood Lake","altName":"Marguerite","rivName":"","launchName":"Wood Lake","launchType":"Trailer Launch","rampType":"Plank","numRamps":"1","numToilets":"0","dataUpdate":"5/13/2013","acres":"372.8","county":"Lyon","geo":{"lat":44.36175935,"lng":-96.02969018}},{"DOWLKNUM":"42005200","lakeName":"Rock Lake","altName":"","rivName":"","launchName":"Rock Lake","launchType":"Trailer Launch","rampType":"Plank","numRamps":"1","numToilets":"0","dataUpdate":"5/13/2013","acres":"375.15","county":"Lyon","geo":{"lat":44.27059286,"lng":-95.9343174}},{"DOWLKNUM":"42007400","lakeName":"West Twin Lake","altName":"","rivName":"","launchName":"West Twin Lake","launchType":"Trailer Launch","rampType":"Concrete","numRamps":"1","numToilets":"0","dataUpdate":"5/13/2013","acres":"219.95","county":"Lyon","geo":{"lat":44.20869526,"lng":-96.05458637}},{"DOWLKNUM":"41008200","lakeName":"Steep Bank Lake","altName":"Sleep Bank","rivName":"","launchName":"Steep Bank Lake","launchType":"Trailer Launch","rampType":"Plank","numRamps":"1","numToilets":"0","dataUpdate":"5/13/2013","acres":"198.5","county":"Lincoln","geo":{"lat":44.53487,"lng":-96.32377535}},{"DOWLKNUM":"41003400","lakeName":"Stay Lake","altName":"","rivName":"","launchName":"Stay Lake","launchType":"Trailer Launch","rampType":"Plank","numRamps":"1","numToilets":"1","dataUpdate":"5/13/2013","acres":"221.2","county":"Lincoln","geo":{"lat":44.38822118,"lng":-96.17437067}},{"DOWLKNUM":"41015600","lakeName":"Porter Lake","altName":"","rivName":"","launchName":"Porter Lake","launchType":"Trailer Launch","rampType":"Gravel","numRamps":"0","numToilets":"0","dataUpdate":"5/13/2013","acres":"15.56","county":"Lincoln","geo":{"lat":44.60947434,"lng":-96.16667756}},{"DOWLKNUM":"17002400","lakeName":"String Lake","altName":"","rivName":"","launchName":"String Lake","launchType":"Trailer Launch","rampType":"Concrete","numRamps":"1","numToilets":"0","dataUpdate":"5/13/2013","acres":"336.22","county":"Jackson","geo":{"lat":43.84630319,"lng":-95.19368549}},{"DOWLKNUM":"32005900","lakeName":"Skunk Lake","altName":"","rivName":"","launchName":"Skunk Lake","launchType":"Trailer Launch","rampType":"Concrete","numRamps":"1","numToilets":"0","dataUpdate":"5/13/2013","acres":"156.68","county":"Jackson","geo":{"lat":43.52765965,"lng":-95.26027621}},{"DOWLKNUM":"17006000","lakeName":"Talcot Lake","altName":"Talcott","rivName":"","launchName":"Talcot Lake","launchType":"Trailer Launch","rampType":"Plank","numRamps":"1","numToilets":"1","dataUpdate":"5/13/2013","acres":"873.04","county":"Cottonwood","geo":{"lat":43.86445172,"lng":-95.45668832}},{"DOWLKNUM":"17007300","lakeName":"Summit Lake","altName":"","rivName":"","launchName":"Summit Lake","launchType":"Trailer Launch","rampType":"Plank","numRamps":"1","numToilets":"0","dataUpdate":"5/13/2013","acres":"64.14","county":"Cottonwood","geo":{"lat":43.85672568,"lng":-95.06517326}},{"DOWLKNUM":"42000200","lakeName":"School Grove Lake","altName":"","rivName":"","launchName":"School Grove Lake","launchType":"Trailer Launch","rampType":"Concrete","numRamps":"1","numToilets":"1","dataUpdate":"5/13/2013","acres":"342.4","county":"Lyon","geo":{"lat":44.55749529,"lng":-95.62456439}},{"DOWLKNUM":"64005800","lakeName":"Redwood Lake","altName":"","rivName":"","launchName":"Redwood Lake","launchType":"Trailer Launch","rampType":"Plank","numRamps":"1","numToilets":"1","dataUpdate":"5/13/2013","acres":"87.45","county":"Redwood","geo":{"lat":44.54031091,"lng":-95.12362562}},{"DOWLKNUM":"41008900","lakeName":"Shaokatan Lake","altName":"Shoakotan","rivName":"","launchName":"Shaokatan Lake (S)","launchType":"Trailer Launch","rampType":"Concrete","numRamps":"2","numToilets":"1","dataUpdate":"5/13/2013","acres":"995.77","county":"Lincoln","geo":{"lat":44.40552888,"lng":-96.34717333}},{"DOWLKNUM":"51004500","lakeName":"Shetek Lake, Armstrong Bay","altName":"","rivName":"","launchName":"Shetek Lake, Armstrong Bay","launchType":"Carry-In","rampType":"Earth","numRamps":"0","numToilets":"0","dataUpdate":"5/13/2013","acres":"33.63","county":"Murray","geo":{"lat":44.12004591,"lng":-95.6625}},{"DOWLKNUM":"17002300","lakeName":"Swan Lake","altName":"","rivName":"","launchName":"Swan Lake","launchType":"Carry-In","rampType":"Gravel","numRamps":"0","numToilets":"0","dataUpdate":"5/13/2013","acres":"5.83","county":"Cottonwood","geo":{"lat":43.99211663,"lng":-95.10297713}},{"DOWLKNUM":"32005800","lakeName":"Timber Lake","altName":"Minneseka","rivName":"","launchName":"Timber Lake","launchType":"Trailer Launch","rampType":"Concrete","numRamps":"1","numToilets":"0","dataUpdate":"5/13/2013","acres":"191.32","county":"Jackson","geo":{"lat":43.8193149,"lng":-95.20521359}},{"DOWLKNUM":"","lakeName":"South Heron Lake","altName":"","rivName":"","launchName":"South Heron Lake (E)","launchType":"Trailer Launch","rampType":"Concrete","numRamps":"1","numToilets":"0","dataUpdate":"5/13/2013","acres":"0","county":"Jackson","geo":{"lat":43.70650304,"lng":-95.21019161}},{"DOWLKNUM":"","lakeName":"South Heron Lake","altName":"","rivName":"","launchName":"South Heron Lake (W)","launchType":"Trailer Launch","rampType":"Concrete","numRamps":"1","numToilets":"1","dataUpdate":"5/13/2013","acres":"0","county":"Jackson","geo":{"lat":43.71650448,"lng":-95.23265912}},{"DOWLKNUM":"","lakeName":"South Heron Lake","altName":"","rivName":"","launchName":"South Heron Lake (NW)","launchType":"Carry-In","rampType":"Earth","numRamps":"0","numToilets":"0","dataUpdate":"5/13/2013","acres":"0","county":"Jackson","geo":{"lat":43.73260283,"lng":-95.26875879}},{"DOWLKNUM":"32006900","lakeName":"Round Lake","altName":"","rivName":"","launchName":"Round Lake (S)","launchType":"Trailer Launch","rampType":"Concrete","numRamps":"1","numToilets":"0","dataUpdate":"5/13/2013","acres":"929.83","county":"Jackson","geo":{"lat":43.54968744,"lng":-95.43454083}},{"DOWLKNUM":"32006900","lakeName":"Round Lake","altName":"","rivName":"","launchName":"Round Lake (E)","launchType":"Trailer Launch","rampType":"Plank","numRamps":"2","numToilets":"1","dataUpdate":"5/13/2013","acres":"929.83","county":"Jackson","geo":{"lat":43.55841866,"lng":-95.41892566}},{"DOWLKNUM":"51004600","lakeName":"Shetek Lake","altName":"","rivName":"","launchName":"Shetek Lake (E)","launchType":"Trailer Launch","rampType":"Plank","numRamps":"1","numToilets":"0","dataUpdate":"5/13/2013","acres":"3370.97","county":"Murray","geo":{"lat":44.09769514,"lng":-95.69305568}},{"DOWLKNUM":"51004600","lakeName":"Shetek Lake","altName":"","rivName":"","launchName":"Shetek Lake, Lake Shetek SPK","launchType":"Trailer Launch","rampType":"Plank","numRamps":"1","numToilets":"1","dataUpdate":"5/13/2013","acres":"3370.97","county":"Murray","geo":{"lat":44.10886683,"lng":-95.69771775}},{"DOWLKNUM":"51003800","lakeName":"Round Lake","altName":"","rivName":"","launchName":"Round Lake","launchType":"Carry-In","rampType":"Earth","numRamps":"0","numToilets":"0","dataUpdate":"5/13/2013","acres":"163.1","county":"Murray","geo":{"lat":44.15219364,"lng":-95.66072754}},{"DOWLKNUM":"51004600","lakeName":"Shetek Lake","altName":"","rivName":"","launchName":"Shetek Lake (W)","launchType":"Trailer Launch","rampType":"Plank","numRamps":"0","numToilets":"1","dataUpdate":"5/13/2013","acres":"3370.97","county":"Murray","geo":{"lat":44.10877437,"lng":-95.70930852}},{"DOWLKNUM":"53003100","lakeName":"Mud Lake","altName":"","rivName":"","launchName":"Sieverding Marsh Lake","launchType":"Carry-In","rampType":"Earth","numRamps":"0","numToilets":"0","dataUpdate":"5/13/2013","acres":"58.79","county":"Nobles","geo":{"lat":43.84559065,"lng":-95.60427938}},{"DOWLKNUM":"47008800","lakeName":"Richardson Lake","altName":"","rivName":"","launchName":"Richardson Lake","launchType":"Trailer Launch","rampType":"Concrete","numRamps":"1","numToilets":"0","dataUpdate":"5/13/2013","acres":"119.37","county":"Meeker","geo":{"lat":45.15507306,"lng":-94.44302557}},{"DOWLKNUM":"47010200","lakeName":"Round Lake","altName":"","rivName":"","launchName":"Round Lake","launchType":"Trailer Launch","rampType":"Concrete","numRamps":"1","numToilets":"0","dataUpdate":"5/13/2013","acres":"266.33","county":"Meeker","geo":{"lat":45.07926394,"lng":-94.51107924}},{"DOWLKNUM":"47004600","lakeName":"Washington Lake","altName":"","rivName":"","launchName":"Washington Lake (E)","launchType":"Trailer Launch","rampType":"Gravel","numRamps":"1","numToilets":"1","dataUpdate":"5/13/2013","acres":"2433.85","county":"Meeker","geo":{"lat":45.07357412,"lng":-94.34095448}},{"DOWLKNUM":"47012900","lakeName":"Star Lake","altName":"","rivName":"","launchName":"Star Lake","launchType":"Trailer Launch","rampType":"Concrete","numRamps":"1","numToilets":"0","dataUpdate":"5/13/2013","acres":"556.68","county":"Meeker","geo":{"lat":45.05623893,"lng":-94.5938112}},{"DOWLKNUM":"47001400","lakeName":"Spencer Lake","altName":"","rivName":"","launchName":"Spencer Lake","launchType":"Carry-In","rampType":"Gravel","numRamps":"1","numToilets":"0","dataUpdate":"5/13/2013","acres":"147.59","county":"Meeker","geo":{"lat":45.01232576,"lng":-94.3362991}},{"DOWLKNUM":"47006100","lakeName":"Willie Lake","altName":"","rivName":"","launchName":"Willie Lake","launchType":"Trailer Launch","rampType":"Concrete","numRamps":"2","numToilets":"0","dataUpdate":"5/13/2013","acres":"191.7","county":"Meeker","geo":{"lat":45.00853951,"lng":-94.50014296}},{"DOWLKNUM":"47001600","lakeName":"Wolf Lake","altName":"","rivName":"","launchName":"Wolf Lake","launchType":"Trailer Launch","rampType":"Concrete","numRamps":"1","numToilets":"0","dataUpdate":"5/13/2013","acres":"262.36","county":"Meeker","geo":{"lat":45.00328617,"lng":-94.29869161}},{"DOWLKNUM":"47015900","lakeName":"Thompson Lake","altName":"","rivName":"","launchName":"Thompson Lake","launchType":"Trailer Launch","rampType":"Concrete","numRamps":"1","numToilets":"0","dataUpdate":"5/13/2013","acres":"225.75","county":"Meeker","geo":{"lat":44.93734215,"lng":-94.72355835}},{"DOWLKNUM":"65000200","lakeName":"Preston Lake","altName":"","rivName":"","launchName":"Preston Lake","launchType":"Trailer Launch","rampType":"Concrete","numRamps":"1","numToilets":"1","dataUpdate":"5/13/2013","acres":"654.95","county":"Renville","geo":{"lat":44.77798299,"lng":-94.54477839}},{"DOWLKNUM":"","lakeName":"Ripley Lake","altName":"","rivName":"","launchName":"Ripley Lake (E)","launchType":"Trailer Launch","rampType":"Concrete","numRamps":"1","numToilets":"1","dataUpdate":"5/13/2013","acres":"0","county":"Meeker","geo":{"lat":45.1025185,"lng":-94.53033334}},{"DOWLKNUM":"","lakeName":"Ripley Lake","altName":"","rivName":"","launchName":"Ripley Lake (W)","launchType":"Trailer Launch","rampType":"Concrete","numRamps":"1","numToilets":"0","dataUpdate":"5/13/2013","acres":"0","county":"Meeker","geo":{"lat":45.11175758,"lng":-94.54996072}},{"DOWLKNUM":"47013800","lakeName":"Youngstrom Lake","altName":"","rivName":"","launchName":"Youngstrom Lake","launchType":"Trailer Launch","rampType":"Gravel","numRamps":"1","numToilets":"0","dataUpdate":"5/13/2013","acres":"153.23","county":"Meeker","geo":{"lat":45.08084662,"lng":-94.56900667}},{"DOWLKNUM":"47003200","lakeName":"Spring Lake","altName":"","rivName":"","launchName":"Spring Lake","launchType":"Trailer Launch","rampType":"Concrete","numRamps":"0","numToilets":"0","dataUpdate":"5/13/2013","acres":"201.2","county":"Meeker","geo":{"lat":45.09408987,"lng":-94.30098046}},{"DOWLKNUM":"47004600","lakeName":"Washington Lake","altName":"","rivName":"","launchName":"Washington Lake (S)","launchType":"Trailer Launch","rampType":"Concrete","numRamps":"2","numToilets":"2","dataUpdate":"5/13/2013","acres":"2433.85","county":"Meeker","geo":{"lat":45.05739182,"lng":-94.37874083}},{"DOWLKNUM":"47006800","lakeName":"Stella Lake","altName":"","rivName":"","launchName":"Stella Lake","launchType":"Trailer Launch","rampType":"Concrete","numRamps":"2","numToilets":"1","dataUpdate":"5/13/2013","acres":"596.37","county":"Meeker","geo":{"lat":45.0608249,"lng":-94.42495039}},{"DOWLKNUM":"87003000","lakeName":"Wood Lake","altName":"","rivName":"","launchName":"Wood Lake","launchType":"Trailer Launch","rampType":"Concrete","numRamps":"1","numToilets":"0","dataUpdate":"5/13/2013","acres":"475.32","county":"Yellow Medicine","geo":{"lat":44.69508764,"lng":-95.52464791}},{"DOWLKNUM":"87001900","lakeName":"Tyson Lake","altName":"","rivName":"","launchName":"Tyson Lake","launchType":"Trailer Launch","rampType":"Concrete","numRamps":"1","numToilets":"0","dataUpdate":"5/13/2013","acres":"166.07","county":"Yellow Medicine","geo":{"lat":44.61479735,"lng":-95.52501329}},{"DOWLKNUM":"87001700","lakeName":"Timm Lake","altName":"","rivName":"","launchName":"Timm Lake WMA","launchType":"Carry-In","rampType":"Earth","numRamps":"1","numToilets":"0","dataUpdate":"5/13/2013","acres":"12.51","county":"Yellow Medicine","geo":{"lat":44.54226295,"lng":-95.54086289}},{"DOWLKNUM":"00000000","lakeName":"Pomme De Terre  River","altName":"","rivName":"Pomme de Terre","launchName":"Pomme De Terre River, #1, Hwy 12","launchType":"Carry-In","rampType":"Gravel","numRamps":"1","numToilets":"1","dataUpdate":"5/13/2013","acres":"36.93","county":"Swift","geo":{"lat":45.28360839,"lng":-95.97935832}},{"DOWLKNUM":"00000000","lakeName":"Pomme De Terre  River","altName":"","rivName":"Pomme de Terre","launchName":"Pomme De Terre River, #2","launchType":"Carry-In","rampType":"Gravel","numRamps":"1","numToilets":"0","dataUpdate":"5/13/2013","acres":"36.93","county":"Swift","geo":{"lat":45.17594684,"lng":-96.08651642}},{"DOWLKNUM":"","lakeName":"Unnamed Lake","altName":"","rivName":"","launchName":"Pomme de Terre River, Appleton","launchType":"Carry-In","rampType":"Earth","numRamps":"1","numToilets":"1","dataUpdate":"5/13/2013","acres":"0","county":"Swift","geo":{"lat":45.20306337,"lng":-96.02089801}},{"DOWLKNUM":"76014100","lakeName":"Shible Lake","altName":"","rivName":"","launchName":"Shible Lake","launchType":"Carry-In","rampType":"Earth","numRamps":"1","numToilets":"0","dataUpdate":"5/13/2013","acres":"340.25","county":"Swift","geo":{"lat":45.24903634,"lng":-96.04370878}},{"DOWLKNUM":"76014600","lakeName":"Oliver Lake","altName":"","rivName":"","launchName":"West Oliver Lake","launchType":"Trailer Launch","rampType":"Concrete","numRamps":"1","numToilets":"1","dataUpdate":"5/13/2013","acres":"671.35","county":"Swift","geo":{"lat":45.34661961,"lng":-96.03177612}},{"DOWLKNUM":"34018000","lakeName":"Willmar Lake","altName":"","rivName":"","launchName":"Willmar Lake","launchType":"Trailer Launch","rampType":"Concrete","numRamps":"1","numToilets":"0","dataUpdate":"5/13/2013","acres":"632.24","county":"Kandiyohi","geo":{"lat":45.13061228,"lng":-95.03101408}},{"DOWLKNUM":"34032100","lakeName":"Swenson Lake","altName":"","rivName":"","launchName":"Swenson Lake","launchType":"Trailer Launch","rampType":"Concrete","numRamps":"1","numToilets":"0","dataUpdate":"5/13/2013","acres":"108.26","county":"Kandiyohi","geo":{"lat":45.27191699,"lng":-95.13607967}},{"DOWLKNUM":"34016900","lakeName":"Wagonga Lake","altName":"Waconda","rivName":"","launchName":"Wakanda (S)","launchType":"Trailer Launch","rampType":"Concrete","numRamps":"1","numToilets":"0","dataUpdate":"5/13/2013","acres":"1754.15","county":"Kandiyohi","geo":{"lat":45.05567233,"lng":-94.97030833}},{"DOWLKNUM":"34017200","lakeName":"Ringo Lake","altName":"","rivName":"","launchName":"Ringo Lake","launchType":"Trailer Launch","rampType":"Concrete","numRamps":"1","numToilets":"0","dataUpdate":"5/13/2013","acres":"734.64","county":"Kandiyohi","geo":{"lat":45.24067419,"lng":-95.00857202}},{"DOWLKNUM":"34016900","lakeName":"Wagonga Lake","altName":"Waconda","rivName":"","launchName":"Wakanda Lake (N)","launchType":"Trailer Launch","rampType":"Concrete","numRamps":"1","numToilets":"0","dataUpdate":"5/13/2013","acres":"1754.15","county":"Kandiyohi","geo":{"lat":45.0622937,"lng":-95.00043414}},{"DOWLKNUM":"87006000","lakeName":"Spellman Lake","altName":"","rivName":"","launchName":"Spellman Lake","launchType":"Trailer Launch","rampType":"Concrete","numRamps":"1","numToilets":"0","dataUpdate":"5/13/2013","acres":"166.01","county":"Yellow Medicine","geo":{"lat":44.67091737,"lng":-95.78075129}},{"DOWLKNUM":"34019300","lakeName":"Point Lake","altName":"","rivName":"","launchName":"Point Lake","launchType":"Trailer Launch","rampType":"Concrete","numRamps":"1","numToilets":"0","dataUpdate":"5/13/2013","acres":"173.52","county":"Kandiyohi","geo":{"lat":45.19488036,"lng":-95.0079474}},{"DOWLKNUM":"","lakeName":"Zumbro River","altName":"","rivName":"","launchName":"Zumbro River, Elton Hills Drive   Steps down to the water's  edge.","launchType":"Carry-In","rampType":"Other","numRamps":"1","numToilets":"0","dataUpdate":"5/13/2013","acres":"0","county":"Olmsted","geo":{"lat":44.043597,"lng":-92.4644264}},{"DOWLKNUM":"","lakeName":"Sunrise Pool, #1","altName":"","rivName":"","launchName":"Sunrise Pool, #1 (N)","launchType":"Carry-In","rampType":"Earth","numRamps":"1","numToilets":"1","dataUpdate":"5/13/2013","acres":"0","county":"Chisago","geo":{"lat":45.39258996,"lng":-92.9562197}},{"DOWLKNUM":"71004000","lakeName":"Sandy Lake","altName":"Sand","rivName":"","launchName":"Sandy Lake (N)","launchType":"Carry-In","rampType":"Earth","numRamps":"0","numToilets":"0","dataUpdate":"5/13/2013","acres":"64.14","county":"Sherburne","geo":{"lat":45.48806429,"lng":-93.52014534}},{"DOWLKNUM":"","lakeName":"Zumbro River","altName":"","rivName":"","launchName":"Zumbro River, Green Bridge","launchType":"Carry-In","rampType":"Earth","numRamps":"1","numToilets":"0","dataUpdate":"5/13/2013","acres":"0","county":"Wabasha","geo":{"lat":44.233401,"lng":-92.48248389}},{"DOWLKNUM":"","lakeName":"Zumbro River","altName":"","rivName":"","launchName":"Zumbro River, Covered Bridge Park","launchType":"Carry-In","rampType":"Earth","numRamps":"1","numToilets":"0","dataUpdate":"5/13/2013","acres":"0","county":"Goodhue","geo":{"lat":44.29642768,"lng":-92.67020593}},{"DOWLKNUM":"","lakeName":"Root River, Whalan","altName":"","rivName":"","launchName":"Root River, Whalan","launchType":"Carry-In","rampType":"Earth","numRamps":"1","numToilets":"1","dataUpdate":"5/13/2013","acres":"0","county":"Fillmore","geo":{"lat":43.73453048,"lng":-91.91970248}},{"DOWLKNUM":"","lakeName":"Zumbro River, Oronoco","altName":"","rivName":"","launchName":"Zumbro River, Oronoco Landing","launchType":"Carry-In","rampType":"Gravel","numRamps":"1","numToilets":"0","dataUpdate":"5/13/2013","acres":"0","county":"Olmsted","geo":{"lat":44.16309557,"lng":-92.53315681}},{"DOWLKNUM":"","lakeName":"Root River, Mound Prairie","altName":"","rivName":"","launchName":"Root River, Mound Prairie","launchType":"Carry-In","rampType":"Gravel","numRamps":"1","numToilets":"0","dataUpdate":"5/13/2013","acres":"0","county":"Houston","geo":{"lat":43.78152805,"lng":-91.44657787}},{"DOWLKNUM":"","lakeName":"Root River, Hokah","altName":"","rivName":"","launchName":"Root River, Hokah","launchType":"Carry-In","rampType":"Earth","numRamps":"1","numToilets":"0","dataUpdate":"5/13/2013","acres":"0","county":"Houston","geo":{"lat":43.76596099,"lng":-91.34377042}},{"DOWLKNUM":"","lakeName":"Whitewater River, Beaver","altName":"","rivName":"","launchName":"Whitewater River, Beaver","launchType":"Carry-In","rampType":"Earth","numRamps":"1","numToilets":"0","dataUpdate":"5/13/2013","acres":"0","county":"Winona","geo":{"lat":44.1496674,"lng":-92.00561372}},{"DOWLKNUM":"00000000","lakeName":"Whitewater River","altName":"","rivName":"","launchName":"Whitewater River, Elba","launchType":"Carry-In","rampType":"Earth","numRamps":"1","numToilets":"0","dataUpdate":"5/13/2013","acres":"36.93","county":"Winona","geo":{"lat":44.09223028,"lng":-92.01339138}},{"DOWLKNUM":"00000000","lakeName":"Zumbro River","altName":"","rivName":"Zumbro","launchName":"Zumbro River, Hammond Village Park","launchType":"Carry-In","rampType":"Earth","numRamps":"1","numToilets":"0","dataUpdate":"5/13/2013","acres":"36.93","county":"Wabasha","geo":{"lat":44.22122848,"lng":-92.36905352}},{"DOWLKNUM":"00000000","lakeName":"Zumbro River","altName":"","rivName":"Zumbro","launchName":"Zumbro River, Walking Bridge Park","launchType":"Carry-In","rampType":"Earth","numRamps":"1","numToilets":"0","dataUpdate":"5/13/2013","acres":"36.93","county":"Wabasha","geo":{"lat":44.27176333,"lng":-92.54884184}},{"DOWLKNUM":"00000000","lakeName":"Zumbro River","altName":"","rivName":"Zumbro","launchName":"Zumbro River, Zumbro Falls Sportsmans Park","launchType":"Carry-In","rampType":"Earth","numRamps":"1","numToilets":"0","dataUpdate":"5/13/2013","acres":"36.93","county":"Wabasha","geo":{"lat":44.27644296,"lng":-92.42388186}},{"DOWLKNUM":"00000000","lakeName":"Zumbro River","altName":"","rivName":"Zumbro","launchName":"Zumbro River, Hammond","launchType":"Carry-In","rampType":"Earth","numRamps":"1","numToilets":"1","dataUpdate":"5/13/2013","acres":"36.93","county":"Wabasha","geo":{"lat":44.22282498,"lng":-92.37215893}},{"DOWLKNUM":"00000000","lakeName":"Zumbro River","altName":"","rivName":"Zumbro","launchName":"Zumbro River, Theilman","launchType":"Carry-In","rampType":"Earth","numRamps":"1","numToilets":"0","dataUpdate":"5/13/2013","acres":"36.93","county":"Wabasha","geo":{"lat":44.28669489,"lng":-92.18684524}},{"DOWLKNUM":"00000000","lakeName":"Zumbro River","altName":"","rivName":"Zumbro","launchName":"Zumbro River, Kruger","launchType":"Carry-In","rampType":"Earth","numRamps":"1","numToilets":"0","dataUpdate":"5/13/2013","acres":"36.93","county":"Wabasha","geo":{"lat":44.33715938,"lng":-92.07726336}},{"DOWLKNUM":"00000000","lakeName":"Zumbro River","altName":"","rivName":"Zumbro","launchName":"Zumbro River, Kellogg","launchType":"Carry-In","rampType":"Earth","numRamps":"1","numToilets":"0","dataUpdate":"5/13/2013","acres":"36.93","county":"Wabasha","geo":{"lat":44.31436302,"lng":-91.99604014}},{"DOWLKNUM":"00000000","lakeName":"Zumbro River","altName":"","rivName":"Zumbro","launchName":"Zumbro River, Zumbro Bottoms - Funk Ford Trail Bridge","launchType":"Carry-In","rampType":"Gravel","numRamps":"1","numToilets":"0","dataUpdate":"5/13/2013","acres":"36.93","county":"Wabasha","geo":{"lat":44.3197301,"lng":-92.12653194}},{"DOWLKNUM":"00000000","lakeName":"Zumbro River","altName":"","rivName":"Zumbro","launchName":"Zumbro River, Reads Park","launchType":"Carry-In","rampType":"Plank","numRamps":"1","numToilets":"1","dataUpdate":"5/13/2013","acres":"36.93","county":"Wabasha","geo":{"lat":44.23833268,"lng":-92.29984792}},{"DOWLKNUM":"55000400","lakeName":"Lake Zumbro","altName":"","rivName":"","launchName":"Zumbro River, Lake Zumbro/Ponderosa","launchType":"Trailer Launch","rampType":"Concrete","numRamps":"1","numToilets":"2","dataUpdate":"5/13/2013","acres":"714.53","county":"Wabasha","geo":{"lat":44.20991031,"lng":-92.47905566}},{"DOWLKNUM":"00000000","lakeName":"Whitewater River","altName":"","rivName":"","launchName":"Whitewater River,  Highway 61","launchType":"Carry-In","rampType":"Earth","numRamps":"0","numToilets":"0","dataUpdate":"5/13/2013","acres":"36.93","county":"Wabasha","geo":{"lat":44.20837936,"lng":-91.92306867}},{"DOWLKNUM":"20001300","lakeName":"Oxbow Park","altName":"","rivName":"","launchName":"Zumbro River, Oxbow Park","launchType":"Carry-In","rampType":"Earth","numRamps":"1","numToilets":"0","dataUpdate":"5/13/2013","acres":"0.36","county":"Olmsted","geo":{"lat":44.08389125,"lng":-92.65582736}},{"DOWLKNUM":"55000400","lakeName":"Lake Zumbro","altName":"","rivName":"","launchName":"Zumbro River, Lake Zumbro/Sandy Point","launchType":"Carry-In","rampType":"Concrete","numRamps":"1","numToilets":"0","dataUpdate":"5/13/2013","acres":"714.53","county":"Olmsted","geo":{"lat":44.16943116,"lng":-92.4681394}},{"DOWLKNUM":"55000500","lakeName":"Shady Lake","altName":"","rivName":"","launchName":"Zumbro River, Allis Co Park","launchType":"Trailer Launch","rampType":"Concrete","numRamps":"1","numToilets":"0","dataUpdate":"5/13/2013","acres":"146.73","county":"Olmsted","geo":{"lat":44.16245989,"lng":-92.53573332}},{"DOWLKNUM":"00000000","lakeName":"Root  River","altName":"","rivName":"Root","launchName":"Root River, Hwy 26","launchType":"Carry-In","rampType":"Earth","numRamps":"1","numToilets":"0","dataUpdate":"5/13/2013","acres":"36.93","county":"Houston","geo":{"lat":43.77702634,"lng":-91.29834588}},{"DOWLKNUM":"00000000","lakeName":"Root River","altName":"","rivName":"Root","launchName":"Root River, Houston","launchType":"Carry-In","rampType":"Earth","numRamps":"1","numToilets":"0","dataUpdate":"5/13/2013","acres":"36.93","county":"Houston","geo":{"lat":43.76899617,"lng":-91.57121522}},{"DOWLKNUM":"00000000","lakeName":"Root River","altName":"","rivName":"Root","launchName":"Root River, Rushford","launchType":"Carry-In","rampType":"Earth","numRamps":"1","numToilets":"0","dataUpdate":"5/13/2013","acres":"36.93","county":"Fillmore","geo":{"lat":43.80299613,"lng":-91.76034811}},{"DOWLKNUM":"00000000","lakeName":"Root River","altName":"","rivName":"Root","launchName":"Root River, Peterson","launchType":"Carry-In","rampType":"Earth","numRamps":"1","numToilets":"0","dataUpdate":"5/13/2013","acres":"36.93","county":"Fillmore","geo":{"lat":43.78643501,"lng":-91.82746502}},{"DOWLKNUM":"00000000","lakeName":"Root River","altName":"","rivName":"Root","launchName":"Root River, Hwy 16","launchType":"Carry-In","rampType":"Gravel","numRamps":"1","numToilets":"1","dataUpdate":"5/13/2013","acres":"36.93","county":"Fillmore","geo":{"lat":43.73682656,"lng":-91.94680895}},{"DOWLKNUM":"00000000","lakeName":"South Branch Root River","altName":"","rivName":"","launchName":"Root River, Lanesboro Shorefishing","launchType":"Carry-In","rampType":"Earth","numRamps":"1","numToilets":"0","dataUpdate":"5/13/2013","acres":"36.93","county":"Fillmore","geo":{"lat":43.71749878,"lng":-91.97810035}},{"DOWLKNUM":"00000000","lakeName":"South Branch Root River","altName":"","rivName":"","launchName":"Root River, Preston","launchType":"Carry-In","rampType":"Gravel","numRamps":"1","numToilets":"0","dataUpdate":"5/13/2013","acres":"36.93","county":"Fillmore","geo":{"lat":43.67005001,"lng":-92.08888424}},{"DOWLKNUM":"00000000","lakeName":"Root River","altName":"","rivName":"Root","launchName":"Root River, Moen's Bridge","launchType":"Carry-In","rampType":"Earth","numRamps":"1","numToilets":"0","dataUpdate":"5/13/2013","acres":"36.93","county":"Fillmore","geo":{"lat":43.78258377,"lng":-92.03202312}},{"DOWLKNUM":"00000000","lakeName":"Root River","altName":"","rivName":"Root","launchName":"Root River, Parsley Bridge","launchType":"Carry-In","rampType":"Gravel","numRamps":"1","numToilets":"2","dataUpdate":"5/13/2013","acres":"36.93","county":"Fillmore","geo":{"lat":43.81533099,"lng":-92.1388496}},{"DOWLKNUM":"00000000","lakeName":"North Branch Root River","altName":"","rivName":"Root","launchName":"Root River, Chatfield","launchType":"Carry-In","rampType":"Earth","numRamps":"1","numToilets":"0","dataUpdate":"5/13/2013","acres":"36.93","county":"Fillmore","geo":{"lat":43.83975061,"lng":-92.19711445}},{"DOWLKNUM":"85001900","lakeName":"Appleby Pool","altName":"Whitewater WMA","rivName":"","launchName":"Whitewater River, Appleby Pools","launchType":"Carry-In","rampType":"Earth","numRamps":"1","numToilets":"0","dataUpdate":"5/13/2013","acres":"21","county":"Winona","geo":{"lat":44.18384533,"lng":-91.99643837}},{"DOWLKNUM":"55000300","lakeName":"Mayo Memorial Park","altName":"","rivName":"","launchName":"Zumbro River, Mayo Memorial Park","launchType":"Carry-In","rampType":"Earth","numRamps":"0","numToilets":"1","dataUpdate":"5/13/2013","acres":"50.41","county":"Olmsted","geo":{"lat":44.02911852,"lng":-92.45122723}},{"DOWLKNUM":"00000000","lakeName":"St, Croix  River","altName":"","rivName":"St. Croix","launchName":"St. Croix River, Osceola","launchType":"Trailer Launch","rampType":"Concrete","numRamps":"2","numToilets":"1","dataUpdate":"5/13/2013","acres":"36.93","county":"Chisago","geo":{"lat":45.32183009,"lng":-92.7114727}},{"DOWLKNUM":"","lakeName":"Rush Lake","altName":"","rivName":"","launchName":"Rush Lake (W)","launchType":"Trailer Launch","rampType":"Concrete","numRamps":"2","numToilets":"1","dataUpdate":"5/13/2013","acres":"0","county":"Chisago","geo":{"lat":45.69477194,"lng":-93.08893127}},{"DOWLKNUM":"","lakeName":"Rush Lake","altName":"","rivName":"","launchName":"Rush Lake (E)","launchType":"Trailer Launch","rampType":"Concrete","numRamps":"2","numToilets":"2","dataUpdate":"5/13/2013","acres":"0","county":"Chisago","geo":{"lat":45.70537021,"lng":-93.0494953}},{"DOWLKNUM":"00000000","lakeName":"Sunrise  River","altName":"","rivName":"","launchName":"Sunrise River, #1","launchType":"Carry-In","rampType":"Earth","numRamps":"1","numToilets":"0","dataUpdate":"5/13/2013","acres":"36.93","county":"Chisago","geo":{"lat":45.35365787,"lng":-92.96884771}},{"DOWLKNUM":"00000000","lakeName":"Rum  River","altName":"","rivName":"Rum","launchName":"Rum River, Walbo","launchType":"Trailer Launch","rampType":"Concrete","numRamps":"1","numToilets":"0","dataUpdate":"5/13/2013","acres":"36.93","county":"Isanti","geo":{"lat":45.57912222,"lng":-93.32285351}},{"DOWLKNUM":"00000000","lakeName":"Rum  River","altName":"","rivName":"Rum","launchName":"Rum River, Hwy 14","launchType":"Trailer Launch","rampType":"Earth","numRamps":"1","numToilets":"0","dataUpdate":"5/13/2013","acres":"36.93","county":"Isanti","geo":{"lat":45.60899262,"lng":-93.25699642}},{"DOWLKNUM":"30002200","lakeName":"Skogman Lake","altName":"","rivName":"","launchName":"Skogman Lake","launchType":"Trailer Launch","rampType":"Concrete","numRamps":"1","numToilets":"0","dataUpdate":"5/13/2013","acres":"222.8","county":"Isanti","geo":{"lat":45.57342438,"lng":-93.15181716}},{"DOWLKNUM":"30013500","lakeName":"Spectacle Lake","altName":"","rivName":"","launchName":"Spectacle Lake","launchType":"Trailer Launch","rampType":"Concrete","numRamps":"1","numToilets":"1","dataUpdate":"5/13/2013","acres":"242.66","county":"Isanti","geo":{"lat":45.57479926,"lng":-93.40423435}},{"DOWLKNUM":"00000000","lakeName":"St. Croix River","altName":"","rivName":"St. Croix","launchName":"St. Croix River, Boomsite","launchType":"Trailer Launch","rampType":"Concrete","numRamps":"1","numToilets":"2","dataUpdate":"5/13/2013","acres":"36.93","county":"Washington","geo":{"lat":45.08104461,"lng":-92.79995302}},{"DOWLKNUM":"30000900","lakeName":"Typo Lake","altName":"","rivName":"","launchName":"Typo Lake","launchType":"Trailer Launch","rampType":"Concrete","numRamps":"1","numToilets":"0","dataUpdate":"5/13/2013","acres":"298.15","county":"Anoka","geo":{"lat":45.40589193,"lng":-93.09004348}},{"DOWLKNUM":"00000000","lakeName":"St Croix River","altName":"","rivName":"","launchName":"St. Croix River, William O'Brien SPK","launchType":"Trailer Launch","rampType":"Concrete","numRamps":"1","numToilets":"0","dataUpdate":"5/13/2013","acres":"36.93","county":"Washington","geo":{"lat":45.2173302,"lng":-92.7589185}},{"DOWLKNUM":"00000000","lakeName":"St Croix River","altName":"","rivName":"St. Croix","launchName":"St. Croix River, Orisville #1","launchType":"Carry-In","rampType":"Earth","numRamps":"1","numToilets":"0","dataUpdate":"5/13/2013","acres":"36.93","county":"Washington","geo":{"lat":45.24631722,"lng":-92.76049292}},{"DOWLKNUM":"82004600","lakeName":"Square Lake","altName":"","rivName":"","launchName":"Square Lake","launchType":"Trailer Launch","rampType":"Concrete","numRamps":"2","numToilets":"1","dataUpdate":"5/13/2013","acres":"203.04","county":"Washington","geo":{"lat":45.15265501,"lng":-92.79636202}},{"DOWLKNUM":"00000000","lakeName":"St Croix River","altName":"","rivName":"","launchName":"St. Croix River, St Croix Bluffs Regional Park","launchType":"Trailer Launch","rampType":"Concrete","numRamps":"2","numToilets":"2","dataUpdate":"5/13/2013","acres":"36.93","county":"Washington","geo":{"lat":44.79892684,"lng":-92.78725153}},{"DOWLKNUM":"62008200","lakeName":"Wabasso Lake","altName":"","rivName":"","launchName":"Wabasso Lake","launchType":"Trailer Launch","rampType":"Concrete","numRamps":"1","numToilets":"0","dataUpdate":"5/13/2013","acres":"42.82","county":"Ramsey","geo":{"lat":45.04357354,"lng":-93.11511884}},{"DOWLKNUM":"62007300","lakeName":"Snail Lake","altName":"","rivName":"","launchName":"Snail Lake","launchType":"Trailer Launch","rampType":"Concrete","numRamps":"2","numToilets":"1","dataUpdate":"5/13/2013","acres":"147.78","county":"Ramsey","geo":{"lat":45.06854951,"lng":-93.12209887}},{"DOWLKNUM":"62006100","lakeName":"Turtle Lake","altName":"","rivName":"","launchName":"Turtle Lake","launchType":"Trailer Launch","rampType":"Concrete","numRamps":"2","numToilets":"0","dataUpdate":"5/13/2013","acres":"450.01","county":"Ramsey","geo":{"lat":45.09285913,"lng":-93.13079735}},{"DOWLKNUM":"82016700","lakeName":"White Bear Lake","altName":"","rivName":"","launchName":"White Bear Lake, Matoska","launchType":"Trailer Launch","rampType":"Concrete","numRamps":"2","numToilets":"0","dataUpdate":"5/13/2013","acres":"2427.66","county":"Ramsey","geo":{"lat":45.08705909,"lng":-92.99891301}},{"DOWLKNUM":"30013800","lakeName":"S Stanchfield Lake","altName":"","rivName":"","launchName":"South Stanchfield Lake","launchType":"Trailer Launch","rampType":"Gravel","numRamps":"1","numToilets":"0","dataUpdate":"5/13/2013","acres":"410.83","county":"Isanti","geo":{"lat":45.6489258,"lng":-93.46459742}},{"DOWLKNUM":"00000000","lakeName":"Rum  River","altName":"","rivName":"Rum","launchName":"Rum River, Cambridge","launchType":"Carry-In","rampType":"Earth","numRamps":"1","numToilets":"1","dataUpdate":"5/13/2013","acres":"36.93","county":"Isanti","geo":{"lat":45.57234231,"lng":-93.23570835}},{"DOWLKNUM":"00000000","lakeName":"Rum  River","altName":"","rivName":"Rum","launchName":"Rum River, Martins","launchType":"Trailer Launch","rampType":"Concrete","numRamps":"1","numToilets":"0","dataUpdate":"5/13/2013","acres":"36.93","county":"Isanti","geo":{"lat":45.48832414,"lng":-93.26674327}},{"DOWLKNUM":"00000000","lakeName":"Rum River","altName":"","rivName":"Rum","launchName":"Rum River, Rum River Drive","launchType":"Carry-In","rampType":"Earth","numRamps":"1","numToilets":"0","dataUpdate":"5/13/2013","acres":"36.93","county":"Anoka","geo":{"lat":45.22338068,"lng":-93.39028229}},{"DOWLKNUM":"62008300","lakeName":"Silver Lake","altName":"","rivName":"","launchName":"Silver Lake","launchType":"Trailer Launch","rampType":"Earth","numRamps":"1","numToilets":"0","dataUpdate":"5/13/2013","acres":"70.84","county":"Anoka","geo":{"lat":45.04307717,"lng":-93.22833016}},{"DOWLKNUM":"00000000","lakeName":"Rum River","altName":"","rivName":"Rum","launchName":"Rum/Mississippi River","launchType":"Trailer Launch","rampType":"Concrete","numRamps":"1","numToilets":"1","dataUpdate":"5/13/2013","acres":"36.93","county":"Anoka","geo":{"lat":45.19240955,"lng":-93.39030794}},{"DOWLKNUM":"02008900","lakeName":"Round Lake","altName":"","rivName":"","launchName":"Round Lake","launchType":"Trailer Launch","rampType":"Earth","numRamps":"1","numToilets":"1","dataUpdate":"5/13/2013","acres":"256.16","county":"Anoka","geo":{"lat":45.2373513,"lng":-93.35064101}},{"DOWLKNUM":"00000000","lakeName":"Rum River","altName":"","rivName":"Rum","launchName":"Rum River, Co Rd 288","launchType":"Trailer Launch","rampType":"Concrete","numRamps":"2","numToilets":"1","dataUpdate":"5/13/2013","acres":"36.93","county":"Anoka","geo":{"lat":45.21382464,"lng":-93.38928853}},{"DOWLKNUM":"00000000","lakeName":"Rum River","altName":"","rivName":"Rum","launchName":"Rum River, Andover","launchType":"Carry-In","rampType":"Earth","numRamps":"1","numToilets":"0","dataUpdate":"5/13/2013","acres":"36.93","county":"Anoka","geo":{"lat":45.24990596,"lng":-93.38254244}},{"DOWLKNUM":"00000000","lakeName":"Rum River","altName":"","rivName":"Rum","launchName":"Rum River, Central Park N","launchType":"Trailer Launch","rampType":"Concrete","numRamps":"1","numToilets":"1","dataUpdate":"5/13/2013","acres":"36.93","county":"Anoka","geo":{"lat":45.2964992,"lng":-93.37702119}},{"DOWLKNUM":"00000000","lakeName":"Rum River","altName":"","rivName":"Rum","launchName":"Rum River, North","launchType":"Carry-In","rampType":"Earth","numRamps":"1","numToilets":"1","dataUpdate":"5/13/2013","acres":"36.93","county":"Anoka","geo":{"lat":45.38898301,"lng":-93.3583013}},{"DOWLKNUM":"00000000","lakeName":"Vermillion  River","altName":"","rivName":"","launchName":"Upper Vermillion","launchType":"Trailer Launch","rampType":"Concrete","numRamps":"1","numToilets":"0","dataUpdate":"5/13/2013","acres":"36.93","county":"Dakota","geo":{"lat":44.70276698,"lng":-92.75821672}},{"DOWLKNUM":"00000000","lakeName":"Mississippi River","altName":"","rivName":"","launchName":"Spring Lake, Park","launchType":"Trailer Launch","rampType":"Concrete","numRamps":"1","numToilets":"0","dataUpdate":"5/13/2013","acres":"36.93","county":"Dakota","geo":{"lat":44.75902993,"lng":-92.93801091}},{"DOWLKNUM":"00000000","lakeName":"St Croix  River","altName":"","rivName":"St. Croix","launchName":"St. Croix River, Ferry","launchType":"Carry-In","rampType":"Earth","numRamps":"1","numToilets":"0","dataUpdate":"5/13/2013","acres":"36.93","county":"Chisago","geo":{"lat":45.67878968,"lng":-92.87771634}},{"DOWLKNUM":"13002800","lakeName":"S Lindstrom Lake","altName":"","rivName":"","launchName":"South Lindstrom Lake","launchType":"Trailer Launch","rampType":"Concrete","numRamps":"2","numToilets":"2","dataUpdate":"5/13/2013","acres":"500.29","county":"Chisago","geo":{"lat":45.37795115,"lng":-92.86942182}},{"DOWLKNUM":"13002700","lakeName":"South Center Lake","altName":"","rivName":"","launchName":"South Center Lake","launchType":"Trailer Launch","rampType":"Concrete","numRamps":"2","numToilets":"2","dataUpdate":"5/13/2013","acres":"831.07","county":"Chisago","geo":{"lat":45.37472495,"lng":-92.83648615}},{"DOWLKNUM":"13001900","lakeName":"Spider Lake","altName":"","rivName":"","launchName":"Spider Lake","launchType":"Trailer Launch","rampType":"Concrete","numRamps":"1","numToilets":"0","dataUpdate":"5/13/2013","acres":"122.49","county":"Chisago","geo":{"lat":45.32858383,"lng":-92.81946553}},{"DOWLKNUM":"00000000","lakeName":"Sunrise  River","altName":"","rivName":"","launchName":"Sunrise River, #2","launchType":"Carry-In","rampType":"Earth","numRamps":"1","numToilets":"2","dataUpdate":"5/13/2013","acres":"36.93","county":"Chisago","geo":{"lat":45.48022342,"lng":-92.87541662}},{"DOWLKNUM":"00000000","lakeName":"St. Croix River","altName":"","rivName":"St. Croix","launchName":"St. Croix River, Taylors Falls","launchType":"Trailer Launch","rampType":"Concrete","numRamps":"1","numToilets":"1","dataUpdate":"5/13/2013","acres":"36.93","county":"Chisago","geo":{"lat":45.4268834,"lng":-92.65002314}},{"DOWLKNUM":"00000000","lakeName":"St Croix  River","altName":"","rivName":"St. Croix","launchName":"St. Croix River, Interstate SPK","launchType":"Trailer Launch","rampType":"Concrete","numRamps":"1","numToilets":"1","dataUpdate":"5/13/2013","acres":"36.93","county":"Chisago","geo":{"lat":45.39200539,"lng":-92.66698727}},{"DOWLKNUM":"00000000","lakeName":"St Croix  River","altName":"","rivName":"St. Croix","launchName":"St. Croix River, Wild River SPK","launchType":"Trailer Launch","rampType":"Concrete","numRamps":"2","numToilets":"1","dataUpdate":"5/13/2013","acres":"36.93","county":"Chisago","geo":{"lat":45.52275041,"lng":-92.72901256}},{"DOWLKNUM":"00000000","lakeName":"St Croix  River","altName":"","rivName":"St. Croix","launchName":"St. Croix River, Sunrise","launchType":"Trailer Launch","rampType":"Concrete","numRamps":"1","numToilets":"0","dataUpdate":"5/13/2013","acres":"36.93","county":"Chisago","geo":{"lat":45.56673345,"lng":-92.86486029}},{"DOWLKNUM":"","lakeName":"Sunrise Pools #1","altName":"","rivName":"","launchName":"Sunrise Pool, #1 (S)","launchType":"Carry-In","rampType":"Earth","numRamps":"1","numToilets":"0","dataUpdate":"5/13/2013","acres":"0","county":"Chisago","geo":{"lat":45.37557833,"lng":-92.96867602}},{"DOWLKNUM":"","lakeName":"Sunrise Pool #1 (n)","altName":"","rivName":"","launchName":"Sunrise Pool, #3","launchType":"Carry-In","rampType":"Earth","numRamps":"1","numToilets":"0","dataUpdate":"5/13/2013","acres":"0","county":"Chisago","geo":{"lat":45.44039238,"lng":-92.9098147}},{"DOWLKNUM":"00000000","lakeName":"St Croix  River","altName":"","rivName":"St. Croix","launchName":"St. Croix River, Old Railroad Bridge","launchType":"Carry-In","rampType":"Earth","numRamps":"1","numToilets":"0","dataUpdate":"5/13/2013","acres":"36.93","county":"Chisago","geo":{"lat":45.70250577,"lng":-92.87235083}},{"DOWLKNUM":"00000000","lakeName":"St Croix  River","altName":"","rivName":"St. Croix","launchName":"St. Croix River, Stevens Creek","launchType":"Carry-In","rampType":"Concrete","numRamps":"1","numToilets":"2","dataUpdate":"5/13/2013","acres":"36.93","county":"Chisago","geo":{"lat":45.72940958,"lng":-92.84881907}},{"DOWLKNUM":"70009800","lakeName":"Pleasant Lake","altName":"","rivName":"","launchName":"Pleasant Lake/Hunting access","launchType":"Carry-In","rampType":"Earth","numRamps":"1","numToilets":"0","dataUpdate":"5/13/2013","acres":"288.94","county":"Scott","geo":{"lat":44.61087456,"lng":-93.55832456}},{"DOWLKNUM":"70007200","lakeName":"Upper Prior Lake","altName":"","rivName":"","launchName":"Upper Prior Lake, Dewitt","launchType":"Trailer Launch","rampType":"Concrete","numRamps":"1","numToilets":"1","dataUpdate":"5/13/2013","acres":"386.25","county":"Scott","geo":{"lat":44.70619259,"lng":-93.45521301}},{"DOWLKNUM":"","lakeName":"Thole Lake","altName":"","rivName":"","launchName":"Thole Lake","launchType":"Trailer Launch","rampType":"Concrete","numRamps":"1","numToilets":"1","dataUpdate":"5/13/2013","acres":"0","county":"Scott","geo":{"lat":44.73945337,"lng":-93.52733407}},{"DOWLKNUM":"27011700","lakeName":"Weaver Lake","altName":"","rivName":"","launchName":"Weaver Lake","launchType":"Trailer Launch","rampType":"Concrete","numRamps":"1","numToilets":"1","dataUpdate":"5/13/2013","acres":"152.09","county":"Hennepin","geo":{"lat":45.11072989,"lng":-93.5096337}},{"DOWLKNUM":"27004200","lakeName":"Twin Lake","altName":"Two","rivName":"","launchName":"Twin Lake","launchType":"Trailer Launch","rampType":"Concrete","numRamps":"1","numToilets":"0","dataUpdate":"5/13/2013","acres":"214.72","county":"Hennepin","geo":{"lat":45.03594778,"lng":-93.33993476}},{"DOWLKNUM":"27014900","lakeName":"Spurzem Lake","altName":"Spurzen","rivName":"","launchName":"Spurzem Lake, Baker Park Reserve","launchType":"Trailer Launch","rampType":"Concrete","numRamps":"1","numToilets":"1","dataUpdate":"5/13/2013","acres":"79.91","county":"Hennepin","geo":{"lat":45.0384064,"lng":-93.6211958}},{"DOWLKNUM":"27004700","lakeName":"Bush Lake","altName":"","rivName":"","launchName":"West Bush Lake Park","launchType":"Trailer Launch","rampType":"Concrete","numRamps":"1","numToilets":"1","dataUpdate":"5/13/2013","acres":"185.93","county":"Hennepin","geo":{"lat":44.83128738,"lng":-93.38156123}},{"DOWLKNUM":"27003700","lakeName":"Wirth Lake","altName":"Glenwood","rivName":"","launchName":"Theo Wirth Lake","launchType":"Trailer Launch","rampType":"Concrete","numRamps":"1","numToilets":"0","dataUpdate":"5/13/2013","acres":"39.88","county":"Hennepin","geo":{"lat":44.98222063,"lng":-93.32135494}},{"DOWLKNUM":"27000100","lakeName":"Snelling Lake","altName":"Gun Club","rivName":"","launchName":"Snelling Lake, Snelling SPK","launchType":"Carry-In","rampType":"Earth","numRamps":"1","numToilets":"0","dataUpdate":"5/13/2013","acres":"101.43","county":"Hennepin","geo":{"lat":44.87572638,"lng":-93.19052865}},{"DOWLKNUM":"10000200","lakeName":"Riley Lake","altName":"Reilly","rivName":"","launchName":"Riley Lake","launchType":"Trailer Launch","rampType":"Concrete","numRamps":"2","numToilets":"1","dataUpdate":"5/13/2013","acres":"296.2","county":"Hennepin","geo":{"lat":44.83435838,"lng":-93.51233816}},{"DOWLKNUM":"27007100","lakeName":"Round Lake","altName":"","rivName":"","launchName":"Round Lake","launchType":"Trailer Launch","rampType":"Gravel","numRamps":"1","numToilets":"1","dataUpdate":"5/13/2013","acres":"30.73","county":"Hennepin","geo":{"lat":44.86920187,"lng":-93.49024984}},{"DOWLKNUM":"27007600","lakeName":"Red Rock Lake","altName":"","rivName":"","launchName":"Red Rock Lake","launchType":"Trailer Launch","rampType":"Concrete","numRamps":"1","numToilets":"1","dataUpdate":"5/13/2013","acres":"100.26","county":"Hennepin","geo":{"lat":44.84380941,"lng":-93.47064617}},{"DOWLKNUM":"27007800","lakeName":"Staring Lake","altName":"Starring","rivName":"","launchName":"Staring Lake","launchType":"Trailer Launch","rampType":"Concrete","numRamps":"1","numToilets":"1","dataUpdate":"5/13/2013","acres":"164.2","county":"Hennepin","geo":{"lat":44.84107482,"lng":-93.45746118}},{"DOWLKNUM":"27018400","lakeName":"Whaletail Lake","altName":"","rivName":"","launchName":"Whaletail Lake","launchType":"Trailer Launch","rampType":"Concrete","numRamps":"1","numToilets":"1","dataUpdate":"5/13/2013","acres":"510.03","county":"Hennepin","geo":{"lat":44.9341269,"lng":-93.73166106}},{"DOWLKNUM":"10000600","lakeName":"Lotus Lake","altName":"Long","rivName":"","launchName":"South Lotus Lake, Park","launchType":"Trailer Launch","rampType":"Concrete","numRamps":"1","numToilets":"0","dataUpdate":"5/13/2013","acres":"245.14","county":"Carver","geo":{"lat":44.86696767,"lng":-93.52346395}},{"DOWLKNUM":"10004100","lakeName":"Zumbra Lake","altName":"","rivName":"","launchName":"Zumbra Lake, Carver Co Park Reserve","launchType":"Trailer Launch","rampType":"Gravel","numRamps":"1","numToilets":"1","dataUpdate":"5/13/2013","acres":"271.13","county":"Carver","geo":{"lat":44.87999883,"lng":-93.66292009}},{"DOWLKNUM":"10004500","lakeName":"Steiger Lake","altName":"Victoria","rivName":"","launchName":"Steiger Lake, Carver Co Park Reserve","launchType":"Trailer Launch","rampType":"Gravel","numRamps":"1","numToilets":"1","dataUpdate":"5/13/2013","acres":"165.88","county":"Carver","geo":{"lat":44.86529229,"lng":-93.65650551}},{"DOWLKNUM":"10010800","lakeName":"Tiger Lake","altName":"","rivName":"","launchName":"Tiger Lake/Hunting access","launchType":"Trailer Launch","rampType":"Earth","numRamps":"1","numToilets":"0","dataUpdate":"5/13/2013","acres":"406.04","county":"Carver","geo":{"lat":44.78792282,"lng":-93.96201265}},{"DOWLKNUM":"10009500","lakeName":"Swede Lake","altName":"","rivName":"","launchName":"Swede Lake/ Hunting access","launchType":"Trailer Launch","rampType":"Earth","numRamps":"1","numToilets":"0","dataUpdate":"5/13/2013","acres":"434.06","county":"Carver","geo":{"lat":44.93377213,"lng":-93.81257247}},{"DOWLKNUM":"","lakeName":"St. Croix River","altName":"St. Croix River","rivName":"","launchName":"St. Croix River, Bayport","launchType":"Trailer Launch","rampType":"Concrete","numRamps":"1","numToilets":"0","dataUpdate":"5/13/2013","acres":"0","county":"Washington","geo":{"lat":45.01680125,"lng":-92.77326401}},{"DOWLKNUM":"70005400","lakeName":"Spring Lake","altName":"","rivName":"","launchName":"Spring Lake","launchType":"Trailer Launch","rampType":"Plank","numRamps":"1","numToilets":"1","dataUpdate":"5/13/2013","acres":"591.84","county":"Scott","geo":{"lat":44.69347321,"lng":-93.4822827}},{"DOWLKNUM":"82016700","lakeName":"White Bear Lake","altName":"","rivName":"","launchName":"White Bear Lake, WBL Park (N)","launchType":"Trailer Launch","rampType":"Concrete","numRamps":"2","numToilets":"1","dataUpdate":"5/13/2013","acres":"2427.66","county":"Ramsey","geo":{"lat":45.09511167,"lng":-92.99622015}},{"DOWLKNUM":"62000100","lakeName":"Silver Lake","altName":"","rivName":"","launchName":"Silver Lake","launchType":"Trailer Launch","rampType":"Concrete","numRamps":"1","numToilets":"1","dataUpdate":"5/13/2013","acres":"74.83","county":"Ramsey","geo":{"lat":45.03014464,"lng":-92.9875024}},{"DOWLKNUM":"00000000","lakeName":"Rum  River","altName":"","rivName":"Rum","launchName":"Rum River, Hwy 7","launchType":"Trailer Launch","rampType":"Earth","numRamps":"1","numToilets":"0","dataUpdate":"5/13/2013","acres":"36.93","county":"Isanti","geo":{"lat":45.52976148,"lng":-93.43922869}},{"DOWLKNUM":"10004800","lakeName":"Wasserman Lake","altName":"Wasserman","rivName":"","launchName":"Wasserman Lake","launchType":"Trailer Launch","rampType":"Concrete","numRamps":"1","numToilets":"0","dataUpdate":"5/13/2013","acres":"164.56","county":"Carver","geo":{"lat":44.84631255,"lng":-93.67711317}},{"DOWLKNUM":"10001500","lakeName":"Virginia Lake","altName":"","rivName":"","launchName":"Virginia Lake","launchType":"Trailer Launch","rampType":"Concrete","numRamps":"1","numToilets":"1","dataUpdate":"5/13/2013","acres":"104.9","county":"Carver","geo":{"lat":44.88349445,"lng":-93.63843915}},{"DOWLKNUM":"10005200","lakeName":"Reitz Lake","altName":"Kleins","rivName":"","launchName":"Reitz Lake","launchType":"Trailer Launch","rampType":"Concrete","numRamps":"1","numToilets":"0","dataUpdate":"5/13/2013","acres":"92.42","county":"Carver","geo":{"lat":44.84066909,"lng":-93.74825397}},{"DOWLKNUM":"10007800","lakeName":"Rice Lake","altName":"","rivName":"","launchName":"Rice Lake/Hunting access","launchType":"Trailer Launch","rampType":"Earth","numRamps":"1","numToilets":"0","dataUpdate":"5/13/2013","acres":"244.52","county":"Carver","geo":{"lat":44.79834084,"lng":-93.86941963}},{"DOWLKNUM":"82011500","lakeName":"Tanners Lake","altName":"Tanner's","rivName":"","launchName":"Tanners Lake","launchType":"Trailer Launch","rampType":"Concrete","numRamps":"1","numToilets":"1","dataUpdate":"5/13/2013","acres":"74.39","county":"Washington","geo":{"lat":44.95238205,"lng":-92.97962946}},{"DOWLKNUM":"10001100","lakeName":"St. Joe Lake","altName":"","rivName":"","launchName":"St. Joe Lake","launchType":"Carry-In","rampType":"Earth","numRamps":"1","numToilets":"0","dataUpdate":"5/13/2013","acres":"18.73","county":"Carver","geo":{"lat":44.87556752,"lng":-93.62076919}},{"DOWLKNUM":"00000000","lakeName":"Rum River","altName":"","rivName":"Rum","launchName":"Rum River, Central Park S","launchType":"Carry-In","rampType":"Earth","numRamps":"1","numToilets":"1","dataUpdate":"5/13/2013","acres":"36.93","county":"Anoka","geo":{"lat":45.28960061,"lng":-93.38163974}},{"DOWLKNUM":"82016700","lakeName":"White Bear","altName":"","rivName":"","launchName":"White Bear Lake (S)","launchType":"Carry-In","rampType":"Earth","numRamps":"1","numToilets":"2","dataUpdate":"5/13/2013","acres":"2427.66","county":"Ramsey","geo":{"lat":45.07006459,"lng":-92.99496991}},{"DOWLKNUM":"00000000","lakeName":"Upper River","altName":"","rivName":"","launchName":"Upper Rice Lake","launchType":"Carry-In","rampType":"Earth","numRamps":"1","numToilets":"0","dataUpdate":"5/13/2013","acres":"36.93","county":"Isanti","geo":{"lat":45.72469273,"lng":-93.22352729}},{"DOWLKNUM":"02000800","lakeName":"Rice Lake","altName":"","rivName":"","launchName":"Rice Lake","launchType":"Carry-In","rampType":"Earth","numRamps":"1","numToilets":"0","dataUpdate":"5/13/2013","acres":"371.22","county":"Anoka","geo":{"lat":45.16228647,"lng":-93.11443773}},{"DOWLKNUM":"","lakeName":"St. Croix River","altName":"","rivName":"","launchName":"St. Croix River, Franconia Landing","launchType":"Trailer Launch","rampType":"Earth","numRamps":"1","numToilets":"1","dataUpdate":"5/13/2013","acres":"0","county":"Chisago","geo":{"lat":45.36855101,"lng":-92.68934363}},{"DOWLKNUM":"","lakeName":"Rum River","altName":"","rivName":"","launchName":"Rum River, River Meadows","launchType":"Trailer Launch","rampType":"Concrete","numRamps":"1","numToilets":"0","dataUpdate":"5/13/2013","acres":"0","county":"Anoka","geo":{"lat":45.3635055,"lng":-93.35959552}},